fsq_place_id,name,location.formatted_address,latitude,longitude,distance,station_id
51d6f3dc498ea03f2ce3379a,Boulangerie Pâtisserie Wellington,"3990 Wellington (entre De l'Église & Hickson), Verdun QC H4G 1V3",45.46393651914137,-73.56671059636794,136,0013e5d100f68121835052a381ab2f23
5f67b90d7024f007d354879e,Kwizinn,"4030 Wellington (De L'église), Verdun QC H4G 1V3",45.46336902841958,-73.56669252246199,83,0013e5d100f68121835052a381ab2f23
51578c33e4b0648146730dc7,Pizza Pizza,"4073, rue Wellington, Verdun QC H4G 1V6",45.462960976014514,-73.56721173688119,100,0013e5d100f68121835052a381ab2f23
4c812feae602b1f7b64d907a,Café la Tazza,"3922, rue Wellington (entre de l'Église & Hickson), Verdun QC H4G 1V3",45.464619477322856,-73.56663557920184,206,0013e5d100f68121835052a381ab2f23
4bbd3637078095212066da91,Zappy Pizza,"11 De L'Église, Verdun QC H4G 2L8",45.462746967413786,-73.56376976565195,169,0013e5d100f68121835052a381ab2f23
4b6480edf964a520d2b82ae3,Garage Café,"275 rue Hickson (coin Wellington), Verdun QC H4G 1S5",45.464981925966114,-73.567522033344,269,0013e5d100f68121835052a381ab2f23
5b317c9edd8442002c974d1f,Bossa Prêt-À-Manger,"4354 Wellington, Verdun QC H4G 1W4",45.460467993550346,-73.56693879385226,273,0013e5d100f68121835052a381ab2f23
4dbf05957aba5216424fc325,Les Délices de l'Ile Maurice,"272 Hickson (Wellington & Ethel), Verdun QC H4G 2J6",45.4648327168923,-73.56731975727071,247,0013e5d100f68121835052a381ab2f23
5bf78a945f68b90039b5183a,Janine Cafe-Brunch,"3900 Wellington (Hickson), Verdun QC H4G 1V3",45.46479267405666,-73.56649594101258,222,0013e5d100f68121835052a381ab2f23
4c706739344437048626245f,Nouveau Delhi Express,"3876 Rue Wellington, Verdun QC H4G 1V2",45.46524470723392,-73.56660710637536,273,0013e5d100f68121835052a381ab2f23
52471ddd498e8b85a9ee47ad,Station W,"3852, rue Wellington, Verdun QC H4G 1V2",45.46547170715051,-73.56661433575134,298,0013e5d100f68121835052a381ab2f23
4c729ed9376da09399d3a6c6,Restaurant Laterna,"3997 Wellington (De L'Église), Verdun QC H4G 1V6",45.46381515865144,-73.56709380048805,141,0013e5d100f68121835052a381ab2f23
4ca66a7e14c33704b271bf3b,Aka-Fuji,"3872 Rue Wellington (Hickson), Verdun QC H4G 1V2",45.46518697469543,-73.56665365288917,267,0013e5d100f68121835052a381ab2f23
5d2007f3442332002f370a2f,Beba,"3900 Rue Éthel (Rue Hickson), Montréal QC H4G 1S3",45.46482485279903,-73.56770658504614,260,0013e5d100f68121835052a381ab2f23
4bd343a3b221c9b68c4cd9d0,Subway,"4235 Wellington, Verdun QC H4G 1V9",45.461368092296865,-73.56735451321099,196,0013e5d100f68121835052a381ab2f23
5b3cf3016fa81f002c5e4829,Comon,"3969 Boulevard LaSalle, Verdun QC H4G 2A1",45.46420084345915,-73.56488042183133,173,0013e5d100f68121835052a381ab2f23
5cef26d3d552c7002dc0a986,Harvey's,"4120 boul. Lasalle, Verdun QC H4G 2A5",45.46235765257072,-73.56308993517848,228,0013e5d100f68121835052a381ab2f23
593c25eb3362735a7e7d2255,Chez Robin marché local,"3819 Rue Wellington, Verdun QC H4G 1V1",45.465748578839126,-73.56696185380225,333,0013e5d100f68121835052a381ab2f23
5716456a498e9bb9e88d52dd,St-Hubert Express,"4120 Boul Lasalle, Verdun QC H4G 2A5",45.46236444762037,-73.56303187955639,232,0013e5d100f68121835052a381ab2f23
4f7a1adde4b03318f5642edc,Wawel,"4301 Wellington (coin Gordon), Verdun QC H4G 1W3",45.460914110378944,-73.56734004832066,239,0013e5d100f68121835052a381ab2f23
4f455230e4b09e5f75505557,Café Différance,"449 ave. Viger Ouest (entre St-Alexandre & Beaver Hall), Montréal QC H2Z 1G6",45.50246234161205,-73.56267902640327,46,0040082e616edec293c0c74fcbf825c4
4f05fe514901346082fe5c08,Officina,"455 ave. Viger Ouest (entre St-Alexandre & Beaver Hall), Montréal QC H2Z 1G6",45.50269282428844,-73.56286109488659,67,0040082e616edec293c0c74fcbf825c4
4fbe842ee4b0f42520aed98b,I-sushi,"447 Avenue Viger O, Montréal QC H2Z 1G6",45.502694785580154,-73.56276430593988,69,0040082e616edec293c0c74fcbf825c4
58e259e22f91cb7e886c5329,Venice MTL Beaver Hall,"1045 Côte du Beaver Hall, Montréal QC H2Z 1S5",45.50243435355931,-73.56440249372248,120,0040082e616edec293c0c74fcbf825c4
56798300498e204a78538464,Fiorellino,"470, rue de la Gauchetière Ouest (entre Beaver Hall & St-Alexandre), Montréal QC H2Z 1E3",45.50285234524643,-73.5633988483622,92,0040082e616edec293c0c74fcbf825c4
4adca246f964a520232e21e3,Daylight Factory,"1030 rue Saint-Alexandre (entre Viger & De la Gauchetière), Montréal QC H2Z 1P3",45.50295965379066,-73.56301956392093,97,0040082e616edec293c0c74fcbf825c4
524c547111d23081db9f82fd,Saikō Bistrot Izakaya,"1065 Côte du Beaver Hall, Montréal QC H2Z 1S5",45.50248817919257,-73.5645494825942,133,0040082e616edec293c0c74fcbf825c4
4ad4c06df964a5206efa20e3,Toqué,"900 Place Jean-Paul-Riopelle, Montréal QC H2Z 2B2",45.502998263983685,-73.56091841929417,187,0040082e616edec293c0c74fcbf825c4
5717aca3498e90419bb45b52,Portus 360,"777 Robert-Bourassa Blvd, Montréal QC H3C 3Z7",45.49979433718035,-73.56253320802755,256,0040082e616edec293c0c74fcbf825c4
4b100d0bf964a5201d6823e3,Café du Parquet,"1000 Place Jean Paul Riopelle (St-Antoine Ouest), Montréal QC h2z 2b3",45.50306089429111,-73.56151686372404,155,0040082e616edec293c0c74fcbf825c4
4af5b204f964a5206cfb21e3,Bagels Expressions,"1045 Cote de Beaver Hall, Montréal QC H2Z 1S5",45.50243042811404,-73.56459607059168,134,0040082e616edec293c0c74fcbf825c4
4b437773f964a5200ae125e3,Frais Café&Sandwiches,"1085 Beaver hall (René Lévesque), Montréal QC",45.502647691986866,-73.56508724036405,178,0040082e616edec293c0c74fcbf825c4
57a1fa72498ef754ac40c539,La Finca – café & bureau,"1067, Rue de Bleury (De la Gauchetière), Montréal QC H2Z 1N1",45.50452048526137,-73.56311578607162,270,0040082e616edec293c0c74fcbf825c4
4b913e5ef964a520aaac33e3,Osco,"360, rue Saint-Antoine Ouest, Montréal QC H2Y 3X4",45.50310942086871,-73.56078234359063,203,0040082e616edec293c0c74fcbf825c4
56e9cf37498e8d07ac01d8f4,Crew Collective & Cafe,"360 Saint Jacques, Montréal QC H2Y 2N1",45.50239947219616,-73.55920178694564,293,0040082e616edec293c0c74fcbf825c4
57dafea0498e5359faf5f11f,Tiradito,"1076 Rue de Bleury (entre René-Lévesque & De la Gauchetière), Montréal QC H2Z 1N2",45.50454438091839,-73.5634049166857,275,0040082e616edec293c0c74fcbf825c4
51c39360498e50c2a5c6ad8e,Camion Pied De Cochon,Montréal QC,45.50216237828216,-73.56100408760156,151,0040082e616edec293c0c74fcbf825c4
4bd5b68e29eb9c7484bf93e1,Ôbol,"800 Rue de la Gauchetière O., Montréal QC H5A 1K6",45.500369071059886,-73.5654021034436,270,0040082e616edec293c0c74fcbf825c4
4bf095173a15d13addc23e9f,Gazette Restaurant,"300 rue Saint-Antoine Ouest (Rue Saint-Pierre, en face du Palais des Congrès), Montréal QC H2Y 0A3",45.50336572615441,-73.56025789714374,252,0040082e616edec293c0c74fcbf825c4
5dc06582e557ca000833eecb,Chifa,"1080 Bleury, Montréal QC H2Z 1N2",45.504495741867416,-73.56359637794091,272,0040082e616edec293c0c74fcbf825c4
50fb36a4e4b0fb41a2b2032b,Kim Fay,"6790 Darlington, Montréal QC",45.509427264659855,-73.63044781330845,280,00b7595b843f69c9041fca9e4e84700b
63711d8b18039a4ec3115052,Boulangerie Sindbad,"6685 Av. de Darlington, Montréal QC H3S 2J6",45.50989154666199,-73.62997890423892,343,00b7595b843f69c9041fca9e4e84700b
64cfc4a44c5dc63ebc2427a0,Renfell’s Kosher Bakery,"2800 Ch. Bates, Montréal QC H3S 1B1",45.511815,-73.632454,486,00b7595b843f69c9041fca9e4e84700b
4b6302d8f964a520905d2ae3,Première Moisson,"7075 rue Casgrain (Marché Jean-Talon), Montréal QC H2S 3A3",45.53548217403967,-73.61560170999411,33,00c210cb99cf9d1b923c1548938aee56
4ff358cee4b054fba8d01d88,Joe la Croute,"7024, ave. Casgrain, Montréal QC H2S 3A2",45.53469282845136,-73.61495730975004,68,00c210cb99cf9d1b923c1548938aee56
4b6e00ccf964a5209ea22ce3,Primo i Secondo,"St dominique (Mozart), Montréal QC H2S 3B6",45.53445766061076,-73.61533726094247,82,00c210cb99cf9d1b923c1548938aee56
4f5f8320e4b0912b8431dc78,La Stellina,"178 Place du Marché-du-Nord, Montréal QC H2S 1A1",45.535268719373065,-73.61458858293231,70,00c210cb99cf9d1b923c1548938aee56
4adf33eef964a520497821e3,Kitchen Galerie,"60 Jean-Talon E. (St Dominique), Montréal QC H2R 1S5",45.53527637359138,-73.61696356038233,115,00c210cb99cf9d1b923c1548938aee56
5598008b498e69837a136c37,Café Saint-Henri,"260 Place du Marché nord, Montréal QC H2S 1A1",45.535949252750804,-73.61407001069685,138,00c210cb99cf9d1b923c1548938aee56
4b05bef5f964a52044e222e3,Le Petit Alep Bistro,"191, rue Jean-Talon Est (Gaspé), Montréal QC H2R 1S8",45.53638472772476,-73.61622532046992,144,00c210cb99cf9d1b923c1548938aee56
4c30ec5f452620a1b4db1f0f,El Rey del Taco,"234 rue Jean-Talon Est (coin Casgrain), Montréal QC H2R 1S7",45.53639235771873,-73.61593620884341,138,00c210cb99cf9d1b923c1548938aee56
4b8bd8acf964a52058ae32e3,Crêperie du Marché,"7070 Ave Henri-Julien (Marché Jean-Talon), Montréal QC H2S 3S3",45.536243931928105,-73.61473370370591,130,00c210cb99cf9d1b923c1548938aee56
4b5244b9f964a520d57327e3,Alep,"199 Jean-Talon Est (Gaspé), Montréal QC H2R 1S8",45.536481956339586,-73.61637330798594,159,00c210cb99cf9d1b923c1548938aee56
4dc627f4b0fb5556cd042ce6,Le Pourvoyeur,"184 rue Jean-Talon Est (Marché Jean-Talon), Montréal QC H2R 1S7",45.53599571323056,-73.61641927969916,115,00c210cb99cf9d1b923c1548938aee56
4fa5808fe4b05ddd672e12a0,La Boite Aux Huîtres,"7070 Henri Julien (Marché Jean Talon), Montréal QC H2S 3S3",45.53651003116592,-73.61501721105,151,00c210cb99cf9d1b923c1548938aee56
54b3562b498ea1f75c4bbf0b,Le Café Du Marché,"236 Place du Marche du Nord, Montréal QC H2S 1A1",45.53573103667442,-73.61421610480629,115,00c210cb99cf9d1b923c1548938aee56
4b3a4ee5f964a520456425e3,Motta,"303 Avenue Mozart Est (rue Henri-Julien), Montréal QC H2S 1B8",45.53626568880522,-73.61328296637788,208,00c210cb99cf9d1b923c1548938aee56
4fcbaddde4b00a0e8530de88,l'Eggs Oeuf du Marche,"7143 rue Saint-Dominique (Jean Talon), Montréal QC H2S 3B8",45.535162798803164,-73.61695981154502,115,00c210cb99cf9d1b923c1548938aee56
5849d31423188e1e7a58e397,Marconi,"45 Avenue Mozart O, Montréal QC H2S 1C1",45.53296717179756,-73.61596657725607,249,00c210cb99cf9d1b923c1548938aee56
4ad4c06ef964a520d5fa20e3,Pizzeria Napoletana,"189 rue Dante (coin De Gaspé), Montréal QC H2S 1K1",45.53432411119559,-73.61254748789034,247,00c210cb99cf9d1b923c1548938aee56
565f4aea498e786f1ff0a594,Chez Tousignant,"6956, rue Drolet (entre Mozart & Bélanger), Montréal QC H2S 2T3",45.53616561299108,-73.61243723162615,260,00c210cb99cf9d1b923c1548938aee56
4adb932bf964a5201b2921e3,Caffè Italia,"6840 boul. Saint-Laurent, Montréal QC H2S 3C7",45.53286243530626,-73.61417784202062,277,00c210cb99cf9d1b923c1548938aee56
4c7016acd97fa143f6ecf4ca,Le Ryad,"7070 Henri-Julien, Montréal QC H2R 1T1",45.536204037019175,-73.61470288803591,127,00c210cb99cf9d1b923c1548938aee56
4bd0cb7041b9ef3bded4fae5,Milan Pizzeria,"64 rue de la Perrière S, Boucherville QC J4B 4W8",45.61226222306601,-73.45077136592833,132,00c84f03ca5970eaa144ed6867d1e2b9
55607a9e498e30fba6ed2ab5,Saint-Laurent Café,"578 Rue Saint-Charles (coin De la Perrière Nord), Boucherville QC J4B 3N4",45.61316018879595,-73.45434110555728,218,00c84f03ca5970eaa144ed6867d1e2b9
34a93a3a78f6498c996c8739,Resto Soleil,"65A de Montbrun Rue, Boucherville QC J4B 7H4",45.6146321993197,-73.45171456798879,145,00c84f03ca5970eaa144ed6867d1e2b9
4f898668e4b005979e4cee17,Café de la Gare,Boucherville QC,45.61469368948204,-73.45147366281999,151,00c84f03ca5970eaa144ed6867d1e2b9
4fd235eee4b0b49d5ae77d7b,Restaurant de la Marina,"535 Marie-Victorin Blvd, Boucherville QC J4B 8T4",45.61152232841293,-73.45671990063241,449,00c84f03ca5970eaa144ed6867d1e2b9
4b1aa496f964a52035ee23e3,Frite Alors,"5405 9 Ave (coin Masson), Montréal QC H1Y 2J7",45.55002410930627,-73.57401349562015,45,00d9a9cfbe247f789b2354e2f4251c14
4adb3fd3f964a520352521e3,Café Lézard,"3119 rue Masson (9e av.), Montréal QC H1Y 1X9",45.549484562335145,-73.5741374094293,105,00d9a9cfbe247f789b2354e2f4251c14
552edc21498ea6903bcafac1,Pot Masson,"3141 rue Masson Est (coin 9e avenue), Montréal QC H1Y 1X9",45.54968137018737,-73.5740994657566,83,00d9a9cfbe247f789b2354e2f4251c14
575ec65e498e9da693bd9852,Maesmi,"3353 Rue Masson, Montréal QC H1X 1R5",45.55174963500852,-73.57300224990668,161,00d9a9cfbe247f789b2354e2f4251c14
4b75f11ff964a520d1302ee3,Buffet Casa Corfu,"3177, rue Masson (coin 10e avenue), Montréal QC H1Y 1Y2",45.55013966907651,-73.57392024367485,30,00d9a9cfbe247f789b2354e2f4251c14
4b097e4af964a520361823e3,Subway,"3216 Masson St. (coin 10e avenue), Montréal QC H1Y 1Y3",45.55055200572653,-73.57320628498105,46,00d9a9cfbe247f789b2354e2f4251c14
4f4ee94ce4b0f03ee66b93fa,Piri Piri,"3038 rue Masson (coin 8e avenue), Montréal QC H1Y 1X6",45.54900180475764,-73.57398073226867,155,00d9a9cfbe247f789b2354e2f4251c14
527a7ae011d2f3378d0526d9,Boulangerie Le Marquis,"367 De Castelneau Est, Montréal QC H2R 1R1",45.55071549915805,-73.57355087044708,39,00d9a9cfbe247f789b2354e2f4251c14
5277d19d498edfe33eaa687a,Tori Tora,"3033 Rue Masson, Montréal QC H1Y 1X7",45.54898998443771,-73.5745620718788,167,00d9a9cfbe247f789b2354e2f4251c14
4afb00baf964a5203b1a22e3,Basha,"3150 rue Masson (coin 9e avenue), Montréal QC H1Y 1Y1",45.54980480827086,-73.57361864806225,66,00d9a9cfbe247f789b2354e2f4251c14
4b0b7093f964a520803123e3,Première Moisson,"3001 rue Masson, Montréal QC H1Y 1X7",45.54873828608279,-73.57448891639226,192,00d9a9cfbe247f789b2354e2f4251c14
528a9af4498ee2d52ae07fe7,Tandoori Masson,"3008 Masson, Montréal QC H1Y 1X6",45.54871093818091,-73.57431074421972,191,00d9a9cfbe247f789b2354e2f4251c14
4b1e9150f964a520c11b24e3,Sushi Time,"3129 rue Masson, Montréal QC H1Y 1X9",45.54962162048255,-73.5742429823789,93,00d9a9cfbe247f789b2354e2f4251c14
5023d5f0e4b0f75a8cf4f926,Oeuf & Boeuf,"3100, rue Masson (coin 8e avenue), Montr QC H1Y 1X8",45.54916332320367,-73.57442219910247,146,00d9a9cfbe247f789b2354e2f4251c14
6251cfdc8fc3443f39396146,Bossa,Montréal QC H1Y 1X8,45.54946207019391,-73.57370462078624,103,00d9a9cfbe247f789b2354e2f4251c14
583890886d6325668680bdd1,Rose Ross,"3017, rue Masson, Montréal QC H1Y 1X7",45.54910357334584,-73.5745657136598,156,00d9a9cfbe247f789b2354e2f4251c14
623b9b0c141ece5b192946fc,Joyo Burger - Masson,"3036 Rue Masson, Montréal QC H1Y 1X6",45.54899983490938,-73.57407762220654,156,00d9a9cfbe247f789b2354e2f4251c14
58769e6018fd2b0b0330932a,Le Boucan,"2876 rue Masson, Montréal QC H1Y 1W9",45.54773263257202,-73.57490956235729,308,00d9a9cfbe247f789b2354e2f4251c14
4e8230b4f5b91d2e46d64910,Quai No.4,"2800 Rue Masson (coin 4e avenue), Montréal QC H1Y 1W7",45.54697819697233,-73.57551827565374,403,00d9a9cfbe247f789b2354e2f4251c14
515e56b0e4b0c13442cfad83,Express Pizza,"2917 Masson (6ème Avenue), Montréal QC H1Y 1X5",45.54830057168156,-73.57492777536888,249,00d9a9cfbe247f789b2354e2f4251c14
4b61db86f964a52072272ae3,Le Pois Penché,"1230 boul. de Maisonneuve Ouest (coin Drummond), Montréal QC H3G 1M2",45.49941357414913,-73.5761063555742,12,00e29ec2eb64a7c141edf1729b02cfd0
570eba59498e7d1c357e28b4,Leaves Cafe,"2051 Rue de la Montagne (entre De Maisonneuve & Sherbrooke), Montréal QC H3G 1Z8",45.49910708292298,-73.57717694127591,102,00e29ec2eb64a7c141edf1729b02cfd0
4b59e0bff964a520c49d28e3,Green Traiteur & Café,"1408 rue Drummond, Montréal QC",45.49892143672711,-73.57513724848828,90,00e29ec2eb64a7c141edf1729b02cfd0
4b9acba8f964a52080d635e3,Joe's Panini,"1404 rue Drummond, Montréal QC H3G 1V9",45.498774,-73.574754,123,00e29ec2eb64a7c141edf1729b02cfd0
53e12999498e37c3e0e2f811,Brigade Pizzeria Napolitaine,"1428 Rue Stanley (entre Ste-Catherine & De Maisonneuve), Montréal QC H3A 1P7",45.49964981067146,-73.57433652179803,129,00e29ec2eb64a7c141edf1729b02cfd0
60e4a988dc981511aa5bd0a1,Caffettiera,"2055 Stanley, Montréal QC H3A 1R7",45.50077408474671,-73.57621354180796,144,00e29ec2eb64a7c141edf1729b02cfd0
4af82729f964a520260b22e3,M Café,"1458 rue de la Montagne (coin De Maisonneuve), Montréal QC H3G 1Z5",45.49872256772757,-73.57688276219629,109,00e29ec2eb64a7c141edf1729b02cfd0
4dcc24e7315135c0aab0d264,Deville Dinerbar,"1425 rue Stanley (entre De Maisonneuve et Ste-Catherine), Montréal QC H3A 1P4",45.499704851426145,-73.57417639684544,142,00e29ec2eb64a7c141edf1729b02cfd0
4ac7af80f964a5201bb920e3,Firegrill,"1490 rue Stanley (coin de Maisonneuve), Montréal QC H3A 1P7",45.499904511411636,-73.57501744525837,88,00e29ec2eb64a7c141edf1729b02cfd0
4addeee4f964a5206e6621e3,O Claf,"2122 rue Drummond (coin Sherbrooke Ouest), Montréal QC H3G 1W9",45.500240475211335,-73.5773101699454,133,00e29ec2eb64a7c141edf1729b02cfd0
4b4d4ae7f964a5203dd026e3,Eggspectation - Maisonneuve,"1313 boul. de Maisonneuve Ouest (coin De La Montagne), Montréal QC H3G 2R9",45.49861786550448,-73.57701764022951,125,00e29ec2eb64a7c141edf1729b02cfd0
4fcabb93e4b00865cc6a7159,Maison Boulud,"1228 Sherbrooke St West (entre Drummond & De la Montagne), Montréal QC H3G 1H6",45.50003802868249,-73.57808545231819,175,00e29ec2eb64a7c141edf1729b02cfd0
4b40054af964a52055b425e3,Toyo Grillades à la Japonaise,"2155 Rue de la Montagne (Rue Sherbrooke Ouest), Montréal QC H3G 1Z8",45.49949557798138,-73.57762521786663,128,00e29ec2eb64a7c141edf1729b02cfd0
4b0f0945f964a5206a5e23e3,Ferreira Café,"1446 Peel Rue (entre St-Catherine & De Maisonneuve), Montréal QC H3A 1S8",45.500434,-73.57406,183,00e29ec2eb64a7c141edf1729b02cfd0
4b0ad2bef964a520752823e3,Café Vasco Da Gama,"1472 rue Peel (coin De Maisonneuve), Montréal QC H3A 1S8",45.500639,-73.574486,173,00e29ec2eb64a7c141edf1729b02cfd0
59c90f2966611658116c4fc0,Ibérica,"1450 Peel (Maisonneuve), Montréal QC H3A 1S8",45.500528691998134,-73.57431713684012,174,00e29ec2eb64a7c141edf1729b02cfd0
55553204498eb09323efdc86,Mandy's,"2067 Crescent, Montréal QC H3G 2C1",45.49828577282335,-73.57789545259563,199,00e29ec2eb64a7c141edf1729b02cfd0
4ad4c06df964a5205ffa20e3,Le Taj,"2077 Stanley Street, Montréal QC H3A 1R7",45.50092906364034,-73.57670153450594,170,00e29ec2eb64a7c141edf1729b02cfd0
556902a1498e618f7c287e74,Soubois,"1106, De Maisonneuve Ouest (entre Peel & Stanley), Montréal QC H3A 1M7",45.50082811303266,-73.57476426036128,177,00e29ec2eb64a7c141edf1729b02cfd0
4de664e4b0fb5cbf0eafdd0e,Burger Bar Crescent,"1465 Crescent St (coin De Maisonneuve), Montréal QC H3G 2B2",45.49798073789932,-73.57722765793771,192,00e29ec2eb64a7c141edf1729b02cfd0
52dd62aa498e2acc7153802e,Café Parvis,"433, rue Mayor, Montréal QC H3A 1N9",45.505817,-73.569302,127,014e10dba2d92bd20c826b88864dc6b6
4af84f6ff964a5201a0c22e3,Thaïphon,"2025 Avenue Union (coin Président-Kennedy), Montréal QC H3A 0A3",45.50496399055654,-73.5713113729463,56,014e10dba2d92bd20c826b88864dc6b6
5e151008319f960008d7a90e,Café Olimpico,"1333 Robert-Bourassa, Montréal QC H3A 2A4",45.50383644839048,-73.57088790824565,149,014e10dba2d92bd20c826b88864dc6b6
55ccc3e2498e2b83aa45668b,Copper Branch,"600 De Maisonneuve Ouest, Montréal QC H3A 3J2",45.50411734883053,-73.5710421685529,121,014e10dba2d92bd20c826b88864dc6b6
52d731d011d2a0079c930734,Biirū,"1433, rue City Councillors (city councillors), Montréal QC H3A 2E4",45.505104900801804,-73.56886654760454,139,014e10dba2d92bd20c826b88864dc6b6
559aba89498e83c3c2fd7895,Vua Sandwichs,"2020 Robert-Bourassa #105 (Du Président-Kennedy), Montréal QC H3A 2A5",45.504301255989574,-73.57234613439306,163,014e10dba2d92bd20c826b88864dc6b6
587d03f77ff1e421e361ca72,Olly Fresco’s,"625 Rue Sainte-Catherine O, Unit 1620, Montréal, QC H3B 1B7, Canada, Montréal QC",45.503526,-73.570128,187,014e10dba2d92bd20c826b88864dc6b6
52a50e6f11d249c2185698f7,A&W Restaurant,"655, avenue du Président-Kennedy, Montréal QC H3A 1K1",45.504713279514,-73.57246563706096,150,014e10dba2d92bd20c826b88864dc6b6
5967f0d39deb7d6f72b94726,Mandy's,"1241 Rue du Square-Phillips, Montréal QC H3B 3E9",45.50417046092147,-73.56842877585333,205,014e10dba2d92bd20c826b88864dc6b6
4b27ceb8f964a5204e8a24e3,Nagoya Sushi,"443 ave. President Kennedy (coin De La Concorde), Montréal QC H3A 0A4",45.506627092816245,-73.57054122749288,161,014e10dba2d92bd20c826b88864dc6b6
560736c2498ef5a819cdd88c,Fisshu Sushi,"537 Sainte-Catherine O, Montréal QC H3B 1B2",45.50456097446298,-73.5687802308119,160,014e10dba2d92bd20c826b88864dc6b6
4b4e1626f964a5200ce126e3,Il Focolaio,"1223 rue Du Square Phillips (coin Sainte-Catherine), Montréal QC H3B 3E9",45.504009,-73.568213,229,014e10dba2d92bd20c826b88864dc6b6
56a4a9dd498ebd48f27fb155,A&W Restaurant,"453, rue Ste-Catherine Ouest, Montréal QC H3B 1B1",45.50537149686012,-73.56803123563998,205,014e10dba2d92bd20c826b88864dc6b6
553d44bf498e17d6b055355c,MKT Restaurant,"1333 boul Robert-Bourassa (entre De Maisonneuve & Sherbrooke), Montréal QC H3A 2A4",45.50383841644434,-73.57079111655287,148,014e10dba2d92bd20c826b88864dc6b6
5122308fe4b06730ba46120a,L'Oréal Café,Montréal QC,45.50349779422416,-73.5707802312311,186,014e10dba2d92bd20c826b88864dc6b6
4b0c214bf964a520753723e3,Zen Ya,"486 rue Sainte-Catherine Ouest, Montréal QC H3B 1A6",45.504340075566226,-73.56833062002413,203,014e10dba2d92bd20c826b88864dc6b6
5d8e2ecd2190f90008ac61b1,Time Out Market Montréal,"705 rue Sainte-Catherine O, Montréal QC H3B 4G5",45.5027544,-73.5714715,276,014e10dba2d92bd20c826b88864dc6b6
56ef4069cd10c4efe574e7b5,Chennai Express,"521 Saint-Catherine Rue O, Montréal QC H3B 1B2",45.5045708049329,-73.56829626481512,195,014e10dba2d92bd20c826b88864dc6b6
4fe9e3d4e4b04b3061c70c7d,Lunch Insolite,"606 Cathcart, Montréal QC H3B 1K9",45.50355286643149,-73.56807008409987,269,014e10dba2d92bd20c826b88864dc6b6
569699e8498ef411991ebeff,East,"1250 boulevard Robert-Bourassa, Montréal QC H3B 3B8",45.50278384822422,-73.56917148866881,289,014e10dba2d92bd20c826b88864dc6b6
589051baa149266f87dbb1cb,Tim Hortons,"6125 Monk Blvd (Jolicoeur), Montréal QC H4E 3H5",45.457097035352305,-73.59571257235557,156,01eb2ebf1d0478ffdc9ea49c43a4b7ae
4cbca1f9bac93704f461f97c,Subway,"6201 Monk (Jolicoeur), Montréal QC H4E 3H8",45.45670280057946,-73.59555462861165,163,01eb2ebf1d0478ffdc9ea49c43a4b7ae
4d7a312f0ceba1cd97a8bd58,Restaurant Deli Green Stop,"6150 Monk Blvd (Jolicoeur), Montréal QC H4E 3H6",45.457162735274494,-73.59527930596506,191,01eb2ebf1d0478ffdc9ea49c43a4b7ae
50709b83e4b015d04fd6114a,Pizza Silvana,"6217 Rue Monk, Montréal QC H4E 3H8",45.45670280057946,-73.59555462861165,163,01eb2ebf1d0478ffdc9ea49c43a4b7ae
4b8320dcf964a52056f930e3,Chez Ping,"6222 Monk (Jolicoeur), Montréal QC H4E 3H7",45.456487756288645,-73.59496711477881,210,01eb2ebf1d0478ffdc9ea49c43a4b7ae
4d72cee9ff6ba35db94f748a,Maison Tsui Yuen,"2357 Jolicoeur Rue, Montréal QC",45.45717069311699,-73.59489254108452,220,01eb2ebf1d0478ffdc9ea49c43a4b7ae
644e69fa11047b631bde2adf,Monk Café Buvette,"6270 Monk Blvd, Montréal QC H4E 3H7",45.45603976145518,-73.59466230384962,244,01eb2ebf1d0478ffdc9ea49c43a4b7ae
51c1cfa4498ec6b8cdb7edcb,Chef Pascal Inc. H.Q.,"5900 boul. Monk, Montréal QC H4E 3H4",45.459641669808235,-73.5962306952378,344,01eb2ebf1d0478ffdc9ea49c43a4b7ae
6685e222c4b56a60fd0c65bc,Taco Et Margarita,"6445 Bd Monk, Montréal QC H4E 3H8",45.454188,-73.59424,385,01eb2ebf1d0478ffdc9ea49c43a4b7ae
55c7f2c2498ec4095f9ade72,Takashi,"5320 Jean-Talon Rue E, Saint-Leonard QC H1S 1L3",45.57913643822587,-73.58188386941967,28,01f9b7e63833ad61e80a7963e2ad9b25
5414d23d498ef49ca339cea9,Marché Tropicana,"5372, Jean-Talon E, Montréal QC H1S 1L5",45.579714422380434,-73.58141739932,45,01f9b7e63833ad61e80a7963e2ad9b25
4ba6a669f964a5201e6639e3,Amir,"5320, rue Jean-Talon est (Lacordaire), Saint-Leonard QC H1S 1L3",45.578273416700355,-73.58238964438665,131,01f9b7e63833ad61e80a7963e2ad9b25
5067467ae4b033d3582e8c36,Mon Epicerie,"5480 Jean Talon (Angevins), Montréal QC h1s 1l6",45.58097809197623,-73.58077896204867,194,01f9b7e63833ad61e80a7963e2ad9b25
539dff66498e2eba581f8b5e,Maison Istanbul,"5106 Rue Jean-Talon Est, Saint-Leonard QC H1S 1K7",45.57672275681873,-73.58316425966865,313,01f9b7e63833ad61e80a7963e2ad9b25
543e4d5a498e48b8d48b1bdf,"Salut, Bonjour!","5169 Jean-Talon Rue E, Saint-Leonard QC H1S 1K8",45.5775739089314,-73.58324023147597,231,01f9b7e63833ad61e80a7963e2ad9b25
4c1a58b3b9f876b0cf7f7846,A&W Restaurant,"5060, rue Jean-Talon Est, Saint-Leonard QC H1S 1K6",45.57603116303449,-73.5836270092624,398,01f9b7e63833ad61e80a7963e2ad9b25
4b8936fef964a520842332e3,Patisserie Italia,"5540 jean talon (Lacordaire), Saint-Léonard QC H1S 1L9",45.58172552885622,-73.5803664281074,283,01f9b7e63833ad61e80a7963e2ad9b25
4c068f478b4520a155928597,Sushi Suki,"5134 Jean-Talon Rue E, Québec",45.57695394755598,-73.5829776896316,284,01f9b7e63833ad61e80a7963e2ad9b25
09b69070688e422176a1e15e,Bar Restaurant la Spasa,"5106 Jean-Talon Rue E, Saint-Leonard QC H1S 1K7",45.57672473380518,-73.5830673091166,310,01f9b7e63833ad61e80a7963e2ad9b25
4db477c16e8179a9137e04d0,Ad-deyafa,"5588 rue Jean-Talon Est, Saint-Leonard QC H1S 1L9",45.58212617377818,-73.5802337923557,328,01f9b7e63833ad61e80a7963e2ad9b25
57164569498e9bb9e88d5297,Express St-Hubert,"7190 Rue Michelet, Saint-Leonard QC H1S 3H4",45.57570612766255,-73.58284042135523,414,01f9b7e63833ad61e80a7963e2ad9b25
5064c99ee4b0a72393afcf3c,Thai Express Restaurant Saint-Léonard,"5040 Rue Jean-Talon E, Place Michelet (Boul. Viau), Saint-Leonard QC H1S 1K6",45.575307479724174,-73.58287606735222,458,01f9b7e63833ad61e80a7963e2ad9b25
4b79818af964a52069fd2ee3,Resto Nouveau Système,"323, rue Beaubien E, Montréal QC H2S 1R9",45.533115533297355,-73.6060369282412,30,02044f52405851c50980c20964349a5d
5516de81498e3f4d85a698a6,Il Bazzali,"285 Rue Beaubien E, Montréal QC H2S 1R7",45.53282461176935,-73.60636662163748,71,02044f52405851c50980c20964349a5d
4c2782c85c5ca59331df47fe,Tsak-Tsak,"280 Beaubien Est ((they Moved)), Montréal QC H2S 1R6",45.532661244547796,-73.60602204525352,77,02044f52405851c50980c20964349a5d
4adb4662f964a520762521e3,Salon Mogador,"310 rue Beaubien Est (Metro Beaubien), Montréal QC H2S 1R8",45.53289238299399,-73.60583577485566,50,02044f52405851c50980c20964349a5d
4b22d087f964a5200a4e24e3,Pho Tây Hô,"6414 rue Saint Denis (Rue Beaubien), Montréal QC H2S 2R7",45.533826014911774,-73.6046814670502,104,02044f52405851c50980c20964349a5d
4f609399e4b071d8a20cd327,Boulangerie de Père en Fils,"328, Rue Beaubien Est (coin Drolet), Montréal QC H2S 1R8",45.53306573693457,-73.60569607080701,33,02044f52405851c50980c20964349a5d
541f314b498ed2c33685cf10,Bazar Café,"278 rue Beaubien Est (Henri-Julien), Montréal QC H2S 1R6",45.532607454350966,-73.6058749019377,82,02044f52405851c50980c20964349a5d
56faed6f498ed8fe2c56b639,Café Pista,"500 Beaubien E, Montréal QC H2S 1S5",45.53480726362428,-73.603911531268,220,02044f52405851c50980c20964349a5d
4b8564b6f964a520f95a31e3,Y Lan,"6425, rue Saint-Denis (coin Beaubien), Montréal QC H2S 2R8",45.533942488698855,-73.60451324365854,122,02044f52405851c50980c20964349a5d
4ba7f51bf964a520c3c139e3,El Chalateco,"520 rue Beaubien est (De Chateaubriand), Montréal QC H2S 1S5",45.534920837879866,-73.60391524678028,229,02044f52405851c50980c20964349a5d
4c9d289246978cfa72dd947f,Tora Sushi,"150 rue Beaubien Est (Casgrain), Montréal QC H2S 1R2",45.53144577222543,-73.60709678641135,233,02044f52405851c50980c20964349a5d
4c431d5fd691c9b6b1408f0a,Le Vieux Vélo,"59, rue Beaubien (rue St-Dominique), Montréal QC H2S 1R1",45.53103103451761,-73.60777469574562,298,02044f52405851c50980c20964349a5d
582388e168a4a32c09f3cb5f,Caifan Tacos Bar,"67, Rue Beaubien Est (Saint Dominique), Montréal QC H2S 1R1",45.53131621364863,-73.60786788363983,275,02044f52405851c50980c20964349a5d
4b521254f964a520956527e3,Elio Pizzeria,"351 Bellechasse (btwn Drolet & St-Denis), Montréal QC H2S 1X1",45.53200419231817,-73.60246135303727,302,02044f52405851c50980c20964349a5d
4ad9fbe5f964a520c11c21e3,La Carreta,"350, rue Saint-Zotique Est, Montréal QC H2S 1L7",45.53481696571938,-73.6089519794161,292,02044f52405851c50980c20964349a5d
4f9360dce4b03742da2863c9,Restaurant Gus,"38, rue Beaubien Est (entre St-Laurent & St-Dominique), Montréal QC H2S 1P8",45.53069057806344,-73.60789582034622,336,02044f52405851c50980c20964349a5d
523c5d5b11d2984d1d8a0691,Beaufort Café,"414 St-Zotique est (St-Denis), Montréal QC H2S 1L9",45.53580334346633,-73.60796661690057,319,02044f52405851c50980c20964349a5d
4b6ecbf0f964a520f6ca2ce3,Café Coyote,"751 Beaubien Est (Chateaubriand), Montréal QC H2S 1S8",45.53560627660981,-73.60374381673087,299,02044f52405851c50980c20964349a5d
569520b4498edac9c3e74b0d,Cafellini,"758 Beaubien Est, Montréal QC H2S 1S7",45.53549868701396,-73.60344951704845,302,02044f52405851c50980c20964349a5d
558898d1498eb8fa602065f3,Les Oubliettes,"6201 Saint-Vallier (coin Bellechasse), Montréal QC H2S 2P6",45.533609807429144,-73.60135237129298,350,02044f52405851c50980c20964349a5d
4e077ae1aeb74c399110a499,Le Grill Barosso,"403 rue Notre-Dame, Repentigny QC J6A 2T2",45.44027634503969,-73.67235126218812,248,0217b73736addb107209816f03000a18
bfb82232e823414820213d39,La Maison Mei,"598 Victoria Rue, Lachine QC H8S 1Y6",45.43813035963781,-73.66913437317271,281,0217b73736addb107209816f03000a18
4b897d61f964a520643b32e3,G. La Frite,"396, rue St-Antoine (4e Avenue), Lachine QC H8S 1S4",45.440154095761635,-73.66741401721012,476,0217b73736addb107209816f03000a18
4c3b918cdef90f474a29fe2d,Toto,"1380, Notre-Dame, Lachine QC H8S 2C8",45.43508373537465,-73.67623572197621,428,0217b73736addb107209816f03000a18
67e27cec3bd3d44dbc57dcc6,Boulangerie BAGEL FRÉNA,"900 Notre-Dame Rue, Lachine QC H8S 2B9",45.435027,-73.6717919,344,0217b73736addb107209816f03000a18
5c3d5ac581a0ea002c415744,L’oeufrier,"830 Rue Notre-Dame, Lachine QC H8S 2B7",45.435077192160875,-73.67120625922321,351,0217b73736addb107209816f03000a18
515b1f07e4b08f1eb67de496,Dagwoods La Sandwicherie,"1005 Rue Notre-Dame (10e Avenue), Lachine QC H8S 2C3",45.43481737786058,-73.67274482448433,359,0217b73736addb107209816f03000a18
4cc84f208c5b236aea83fe6d,Ô Saveurs,"1265, rue Notre-Dame, Lachine QC H8S 2C7",45.43481961424195,-73.67530786429589,411,0217b73736addb107209816f03000a18
53758c85498eccb654a0536f,Loon Wah,"645 Rue notre-Dame (6e Avenue), Lachine QC H8S 2B4",45.43476553584114,-73.66984159479514,429,0217b73736addb107209816f03000a18
4d4de13eb887a1cd0d0ec1a0,Restaurant Bardeco,"601 Rue Notre-Dame (6e Avenue), Montréal QC H8S 2B3",45.43477374717033,-73.66945501504468,445,0217b73736addb107209816f03000a18
4c4cbeb650710f47a6759432,La Belle Province,"990 Provost Rue, Québec",45.442145607890566,-73.67256030775194,454,0217b73736addb107209816f03000a18
4bd729b17b1876b028c58d86,Subway,"St-Michel (Rosemont), Montréal QC",45.55852899822005,-73.60279685016721,166,0243c740e1d4fe272e0c414cdd900c7d
4de80dc445dde4a28d46a41a,Pho Asie,"3271 Jean-Talon Rue E, Montréal QC H2A 1W4",45.559421804318355,-73.5980740992786,265,0243c740e1d4fe272e0c414cdd900c7d
604953d3d2434fe3d64d5121,Cafe Bistro la Dolce Vita,"3055A Villeray Rue, Montréal QC H2A 1E8",45.5607670980923,-73.60451872742222,266,0243c740e1d4fe272e0c414cdd900c7d
2d3b7177ba964c0eebf1f50c,Bistro Hollywood,"3055 Villeray Rue, Montréal QC H2A 1E8",45.5607670980923,-73.60451872742222,266,0243c740e1d4fe272e0c414cdd900c7d
4b895dbbf964a520582f32e3,Restaurant Kim Hour,"7682 St-Michel Blvd (at Crémazie Est), Montréal QC H2A 3A5",45.561715752737804,-73.60537414956441,378,0243c740e1d4fe272e0c414cdd900c7d
53d52205498edbfdf1c83aac,Poissonnerie Mediterraniénne,"7735 St. Michel, Montréal QC H2A 3A7",45.56244918229189,-73.60564064009797,446,0243c740e1d4fe272e0c414cdd900c7d
4bb2a7894019a5930f2c37b8,McDonald's,"7645 Boul. Saint-Michel, Montréal-Nord QC H2A 3M4",45.561685891586166,-73.60406388935364,299,0243c740e1d4fe272e0c414cdd900c7d
5cae4e30c4df1d002ce14e38,Headspace Brewhouse,Montréal QC H2A 1N8,45.557465,-73.604836,361,0243c740e1d4fe272e0c414cdd900c7d
4beb2fba6295c9b6a46a8708,Chez Alberto,"3380 rue Jean Talon Est (coin 13e Avenue), Montréal QC H2A 1W8",45.56030066660901,-73.59679351399818,369,0243c740e1d4fe272e0c414cdd900c7d
5e067ba5dd5bac0008910fa5,Papichulo,"3388 Jean-Talon E, Montréal QC H2A 1W8",45.56041625662269,-73.59670029796979,378,0243c740e1d4fe272e0c414cdd900c7d
5290f1ec11d2feae04bdfc5f,Quan Bo De,"3436 Jean Talon East, Montréal QC H2a 1w9",45.56082281046826,-73.5962771217493,422,0243c740e1d4fe272e0c414cdd900c7d
536d76d1498ee917291dd247,Kim Long,Montréal QC,45.56268038201464,-73.60545424319479,454,0243c740e1d4fe272e0c414cdd900c7d
4ba3fd5af964a520f07438e3,St-Mark (Le),"356, rue St-Charles Ouest (at St-Sylvestre), Longueuil QC J4H 4E5",45.536309844915415,-73.51265843101146,15,0274ec7d6cd70a5f7e5fc21edc47b801
53e40891498e7c5b4f72ebc9,Madame Thai,"361 St-Charles Rue O, Longueuil QC J4H 1E7",45.53665056905684,-73.5126688794131,29,0274ec7d6cd70a5f7e5fc21edc47b801
4d98918fa2c654810d02f453,Péché Matinal,"337 Saint-Charles Ouest, Longueuil QC J4H 1E7",45.536941219836855,-73.51233857081073,60,0274ec7d6cd70a5f7e5fc21edc47b801
58570b47158b966de038e5f9,Chichi Café,"95 rue saint sylvestre, Longueuil QC J4H 2W1",45.53664865082587,-73.51276574042977,33,0274ec7d6cd70a5f7e5fc21edc47b801
579a8f81498e5aa17440b7b3,Küto,"353, rue Saint-Charles O, Longueuil QC J4H 1E7",45.53676606216102,-73.51257550098472,40,0274ec7d6cd70a5f7e5fc21edc47b801
4bb22ba9f964a520d0bf3ce3,Sushi Shop,"353 Rue Saint-Charles Ouest (rue Saint-Sylvestre), Longueuil QC J4H 1E7",45.53676606216102,-73.51257550098472,40,0274ec7d6cd70a5f7e5fc21edc47b801
f19b5fdc53052704730a2450,M & M Food Market,"369 St-Charles Rue O, Longueuil QC J4H 1G1",45.53630025294906,-73.51314273238171,50,0274ec7d6cd70a5f7e5fc21edc47b801
4ba03a31f964a520c76237e3,Messina,"329 St-Charles (St-Jean), Longueuil QC J4H 1E5",45.53700088421546,-73.51219501917431,70,0274ec7d6cd70a5f7e5fc21edc47b801
4b400afff964a520bfb425e3,Longueuil Pizza Restaurant,"114 Guilbault St., Longueuil QC J4H 2T2",45.535682309434115,-73.512784564399,83,0274ec7d6cd70a5f7e5fc21edc47b801
576c8251498e125c5200126c,Jacques Cartier Pizza,Longueuil QC,45.53661775259178,-73.5114563767711,85,0274ec7d6cd70a5f7e5fc21edc47b801
4be613a8910020a1eef4d314,L'incrédule,"288, rue Saint-Charles (Rue Saint-Thomas), Longueuil QC J4H 1H3",45.537497357620374,-73.51007796520685,224,0274ec7d6cd70a5f7e5fc21edc47b801
4bcb9564b6c49c74f88e9291,La Piazzetta Vieux-Longueuil,"480 Rue Saint-Charles O (coin Quinn), Longueuil QC J4H 1G4",45.53463136570958,-73.51420606800917,237,0274ec7d6cd70a5f7e5fc21edc47b801
553bc7b4498e0478458fc100,L'Gros Luxe,"217 Rue Saint-Charles O, Longueuil QC J4H 1E1",45.538111486929026,-73.51062983770633,239,0274ec7d6cd70a5f7e5fc21edc47b801
4bb51f512ea195213406aa2f,Resto-pub Chez Vincent,"327 rue Saint Laurent O (au niveau de la rue Saint-Jean), Longueuil QC J4H 1M6",45.535997612919935,-73.50833599682949,327,0274ec7d6cd70a5f7e5fc21edc47b801
4bd5d2836f649521f2c16fec,Frite Alors,"241 rue Saint-Charles Ouest, Longueuil QC J4H 1E1",45.53800174328144,-73.51043263222634,239,0274ec7d6cd70a5f7e5fc21edc47b801
4ca8fe1e76d3a09384921b6b,Silva,"177 St-Charles, Longueuil QC",45.53852146020921,-73.51001238747162,304,0274ec7d6cd70a5f7e5fc21edc47b801
52362ff311d2cc2df3b4484f,Gousto Bistro,"360 St-Jean (St-Laurent), Longueuil QC J4H 2X6",45.535602975895614,-73.50817855804505,348,0274ec7d6cd70a5f7e5fc21edc47b801
52597e60498e4988b00b3232,Dur à Cuire,"219 rue Saint-Jean (rue Saint-Laurent), Longueuil QC J4H 2X4",45.53626718728009,-73.50907112663928,267,0274ec7d6cd70a5f7e5fc21edc47b801
4c4b7091712ac9283b4ee36c,Restaurant Lou Nissart,"260 St-Jean (St-Laurent), Longueuil QC",45.53581863560152,-73.5087666551012,298,0274ec7d6cd70a5f7e5fc21edc47b801
5334a482498ee52eacdeb3c7,La Lanterne,"165 St-Charles ouest, Longueuil QC J4H 1C8",45.53869469936289,-73.50987230373971,326,0274ec7d6cd70a5f7e5fc21edc47b801
4bf0583a7ed12d7f190ee7c2,Los Planes,"531 Bélanger, Montréal QC H2S 1G5",45.53846918315468,-73.6109620916822,235,03306a21cafcf901fa4a45504a834c72
617b304d6aa49453aad81af9,Stella Pizzeria,"1100 Rue Bélanger, Montréal QC H2S 1H4",45.54091835142725,-73.60794055626708,124,03306a21cafcf901fa4a45504a834c72
4af5ca40f964a520e4fc21e3,Nickels Deli,"6950 Rue Saint-Hubert (Bélanger), Montréal QC H2S 2M9",45.5392366,-73.6101909,131,03306a21cafcf901fa4a45504a834c72
4adda3e7f964a5202b6521e3,Caffè Mille Gusti,"1038 rue Saint-Zotique (entre Christophe-Colomb & Boyer), Montréal QC H2S 1N2",45.538987636424295,-73.60511457863254,322,03306a21cafcf901fa4a45504a834c72
4aed0cf4f964a520f1cc21e3,Le Roi du Smoked Meat,"6705, rue St-Hubert, Montréal QC H2S 2M6",45.53778071984013,-73.60668869545772,309,03306a21cafcf901fa4a45504a834c72
4c39f99a2c8020a1cc828d00,Charro's,"7002 St-Hubert, Montréal QC H2S 2M9",45.53960096799222,-73.61119317199677,180,03306a21cafcf901fa4a45504a834c72
591b52e80e5da870029c30f9,Ssam,"756 Rue Bélanger, Montréal QC H2S 1G6",45.5385987691813,-73.61019087779204,188,03306a21cafcf901fa4a45504a834c72
4dd1727722718eed7a8092fa,Resto Larimar,"1190 Rue Bélanger est, Montréal QC H2S 1H4",45.54149225227129,-73.60766856394314,188,03306a21cafcf901fa4a45504a834c72
4b75e28ef964a5200e2c2ee3,L'Express St-Zotique,"555 rue Saint-Zotique Est, Montréal QC H2S 1M2",45.53700688308023,-73.60747298319312,358,03306a21cafcf901fa4a45504a834c72
4c06771dc00ab71325dab26b,Casa Nova,"1301 rue Bélanger, Montréal QC H2S 1J1",45.54300837017108,-73.60661497435308,375,03306a21cafcf901fa4a45504a834c72
53697efa11d2d863bba71479,Super Taco,"500A Belanger Rue (Saint-Vallier), Montréal QC H2S 1G4",45.5380646552798,-73.61128805919842,285,03306a21cafcf901fa4a45504a834c72
5661f79c498e07ffabba4e75,Luciano,"1212 Saint-Zotique Est, Montréal QC H2S 1N5",45.540262954446135,-73.60389615345953,395,03306a21cafcf901fa4a45504a834c72
4e53139918381367472ace0f,Domino's Pizza,"7046 Rue Saint-Hubert, Montréal QC H2S 2M9",45.539873907401656,-73.61173530037273,216,03306a21cafcf901fa4a45504a834c72
4d91012e5091a1cdacc5c701,Bun Viet,"7058 rue Saint-Hubert (entre Bélanger & Jean-Talon), Montréal QC H2S 2M9",45.53992769425828,-73.6118824754364,227,03306a21cafcf901fa4a45504a834c72
4c37a7653849c928731cbeb1,Marché Hung Phat,"7099 rue Saint-Denis (Rue Jean-Talon), Montréal QC H2S 2S5",45.53818395487709,-73.61376378731511,427,03306a21cafcf901fa4a45504a834c72
4beece2fac3cef3b6ec4f4f9,Café Bistro El Mundo,"7150 rue Saint-Hubert (coin Jean-Talon Est), Montréal QC H2R 2N1",45.54069071177143,-73.61345859984979,356,03306a21cafcf901fa4a45504a834c72
6313866188481e4e1ab91401,Café Rose De Mai,Montréal QC H2S 1G4,45.53795908328931,-73.6108968562238,277,03306a21cafcf901fa4a45504a834c72
592891619deb7d7d29060ee1,Café Larue & Fils,"919 Rue Saint-Zotique E, Montréal QC H2S 1M9",45.538280207402835,-73.60635154508422,283,03306a21cafcf901fa4a45504a834c72
5e9a2318d10b6600080f77ee,L’hamburger,"930 Saint Zotique, Montréal QC H2S 1M8",45.53851535242951,-73.60597151654957,289,03306a21cafcf901fa4a45504a834c72
4dd84bc97d8b3226640606b8,Futago Sushi,"1251 Bélanger (Normanville), Montréal QC",45.54252448036976,-73.60721771101333,305,03306a21cafcf901fa4a45504a834c72
5823425ea1f3184ac2da7c35,Parma Café,"1202 Rue Bishop, Montréal QC H3G 2E3",45.49579629129146,-73.57518234046739,170,035f64853a0a8204e33cb4a10898068e
4dd7165f2271c5d36d3360e6,Garage Beirut,"1238 Mackay (South of Sainte-catherine), Montréal QC H3G 2H4",45.495264687276894,-73.57618208435925,184,035f64853a0a8204e33cb4a10898068e
4ad4c06df964a52045fa20e3,Da Vinci Restaurant,"1180 rue Bishop, Montréal QC H3G 2E3",45.49563289386231,-73.57483817294319,142,035f64853a0a8204e33cb4a10898068e
53be99a4498ea426b8993e4a,Les Saisons de Corée,"1184, rue Bishop, Montréal QC H3G 2E3",45.49563289386231,-73.57483817294319,142,035f64853a0a8204e33cb4a10898068e
5739eda2498ee377a5a50f71,Kinton Ramen,"1211 Rue Bishop, Montréal QC H3G 2E2",45.496055,-73.574941,188,035f64853a0a8204e33cb4a10898068e
4ad4c06ef964a520d8fa20e3,Mango Bay,"1236 Mackay, Montréal QC H3G 2H4",45.49523258484202,-73.57619047164916,183,035f64853a0a8204e33cb4a10898068e
4ea20d1e9adff63439813420,Madras Curry House / Maison de Cari,"1242 Mackay (St Catherine), Montréal QC H3G 2H4",45.495149182670076,-73.57627521586244,184,035f64853a0a8204e33cb4a10898068e
4c086b75009a0f47532fe6bf,Al-Dar,"1221, Mackay (Sainte-Catherine Ouest), Montréal QC H3G 2H5",45.49538610953459,-73.57579863186604,166,035f64853a0a8204e33cb4a10898068e
5b0c2534b399f7002c1dce3c,Siam,"1325 Boulevard René-Lévesque O, Montréal QC H3G 0A1",45.49652872957023,-73.5726880022079,255,035f64853a0a8204e33cb4a10898068e
4ad4c06df964a52075fa20e3,Phayathai,"1235, rue Guy, Montréal QC H3H 2K5",45.4948545018897,-73.57679835969932,213,035f64853a0a8204e33cb4a10898068e
4c5b59352815c928454daf67,Le Tokebi,"1195 rue Crescent, Montréal QC H3G 2B1",45.49650114487865,-73.5740428644978,227,035f64853a0a8204e33cb4a10898068e
5984c8240123581165c0db28,Gyu-Kaku Japanese BBQ,"1255 Rue Crescent (Sainte-Catherine), Montréal QC H3G 2B1",45.49704909903366,-73.57502881650733,296,035f64853a0a8204e33cb4a10898068e
4bbf7a37b083a5938683a3e9,Domino's Pizza,"1215 Rue Bishop, Montréal QC H3G 2E2",45.49608505222556,-73.57494950056095,192,035f64853a0a8204e33cb4a10898068e
4ad4c06bf964a52034f920e3,Hurley's Irish Pub,"1225 rue Crescent (btwn René-Lévesque O & Sainte-Catherine O), Montréal QC H3G 2B1",45.49678442314481,-73.57478170367789,263,035f64853a0a8204e33cb4a10898068e
54977aab498e025da459d57a,The Basak Crispy Chicken & Beer,"1237 Rue Guy, Montréal QC H3H",45.4948545018897,-73.57679835969932,213,035f64853a0a8204e33cb4a10898068e
4ad4c06cf964a52033fa20e3,Il Campari Centro,"1177 rue de la Montagne (Rene-Levesque O.), Montréal QC H3G 1Z2",45.497144299122944,-73.57314347996721,308,035f64853a0a8204e33cb4a10898068e
4b8ae06df964a520c28632e3,Al-Taib,"2125 Rue Guy (Boulevard de Maisonneuve O), Montréal QC H3H 2L9",45.49490830763717,-73.57694533998865,225,035f64853a0a8204e33cb4a10898068e
4ad8ad03f964a5209c1321e3,Café Myriade,"1432 rue Mackay (entre Ste-Catherine & De Maisonneuve Ouest), Montréal QC H3G 2H7",45.496103,-73.577927,348,035f64853a0a8204e33cb4a10898068e
53b04d97498ee541879eed21,QDC Burger,"1181 rue de la Montagne, Montréal QC H3G 1Z2",45.497433,-73.572945,343,035f64853a0a8204e33cb4a10898068e
4e160033227165ad03b42035,Nos Thés & Cafés,"1609 Rue Ste-Catherine O. (coin Lincoln), Montréal QC H3H 1L8",45.494743745196274,-73.57828259468079,326,035f64853a0a8204e33cb4a10898068e
4b7c2fccf964a520f3822fe3,Lola Rosa Café,"545 rue Milton (coin Lorne), Montréal QC H2X 1W5",45.50730715365404,-73.57571387713692,229,0366a94e06c77055841607882a40a484
4b9934f8f964a520c76935e3,McGill Pizza,"625 Milton St. (at Lorne Ave.), Montréal QC H2X 1W7",45.507024760550536,-73.57612348598651,202,0366a94e06c77055841607882a40a484
505357c5e4b012cb8168c08f,Subway,"853 Sherbrooke St W McGill, Montréal QC",45.50517254873793,-73.577807518063,264,0366a94e06c77055841607882a40a484
5649ff91498eec5ccae34fcd,Première Moisson,"333, rue Prince-Arthur Ouest (coin Parc), Montréal QC H2X 3P8",45.51061231559248,-73.57570579237702,416,0366a94e06c77055841607882a40a484
5b59d21d3d4791002c0dd81a,Café St-Barth,"3500 Ave du Parc, Montréal QC H2X 2H7",45.50951035243036,-73.57402370797669,424,0366a94e06c77055841607882a40a484
58f10bf9a8792166c44e681a,Milton B,"3498 Ave du Parc (Milton Street), Montréal QC H2X 2H5",45.50923338204836,-73.57367580284874,433,0366a94e06c77055841607882a40a484
4ae4b9f2f964a5207f9d21e3,Hielo Resto Bar,"3575 Ave. du Parc (coin Prince-Arthur), Montréal QC H2X 3P9",45.51041284055431,-73.57533141444476,415,0366a94e06c77055841607882a40a484
4ca2110646978cfa3464c17f,Santos café,"Court mont royal, Montréal QC",45.50596482900692,-73.57516931847968,318,0366a94e06c77055841607882a40a484
4af06286f964a52093db21e3,Thai Express,"3550 Ave du Parc, Galerie du Parc (coin Prince-Arthur), Montréal QC H2X 3P9",45.510102,-73.575315,390,0366a94e06c77055841607882a40a484
4ad4c06df964a52091fa20e3,Asha,"3490 Parc Avenue, Montréal QC H2X 2H5",45.509237322572204,-73.57348219584175,447,0366a94e06c77055841607882a40a484
4c7d8ba6d461a143208b7df5,Subway,"3550 Parc (Prince Arthur), Montréal QC",45.510164039567115,-73.57540080957804,391,0366a94e06c77055841607882a40a484
5509ba55498eb89fc5efae6b,Freshii,"3454 Avenue du Parc (Sherbrooke), Montréal QC H2X 2H6",45.50885468392744,-73.57274345091771,484,0366a94e06c77055841607882a40a484
4f54fa12e4b00615176c4f33,Midnight Kitchen,,45.50379425437634,-73.5785380966066,409,0366a94e06c77055841607882a40a484
53d93fed498e00d3a5a6c8b6,Genki Crêpe,"3675 Ave. du Parc (coin Prince-Arthur), Montréal QC H2X 3P9",45.5103360006674,-73.57523186420441,414,0366a94e06c77055841607882a40a484
4b758bd3f964a52022132ee3,Spicy Noodles,"3575, ave du Parc (coin Prince-Arthur), Montréal QC H2X 3P9",45.51034100308843,-73.57515752939987,418,0366a94e06c77055841607882a40a484
4d7c07bfea35236a348d5123,"3575 Park Avenue, Underground Level","Ave du parc (Prince Arthur), Montréal QC H2X 3P9",45.51028744522357,-73.5749204211812,426,0366a94e06c77055841607882a40a484
4f8d9430e4b013a9844da38a,Sushi Shop & Thai Express,"3550 Ave du Parc, Montréal QC H2X 3P9",45.510399021689196,-73.57502086679266,430,0366a94e06c77055841607882a40a484
4d547b91ba5b224b24bc0314,La Prep,"3480 rue McTavish, Montréal QC H3A 1X9",45.503573095978616,-73.57824042613461,435,0366a94e06c77055841607882a40a484
57164569498e9bb9e88d52af,St-Hubert Express,"3575 Av Du Parc (coin Prince-Arthur), Montréal QC H2X 3P9",45.510251444621645,-73.57495531439781,421,0366a94e06c77055841607882a40a484
6307bf39d72ddf02e8163be9,La Fabrique De Bagel Montreal,Montréal QC H2X 1V7,45.50968756976037,-73.57369034805312,457,0366a94e06c77055841607882a40a484
4dd7004c1838b8561cdc1d79,Inochi Express,"7381 boul. Saint-Laurent, Montréal QC H2R 1W7",45.53599710579095,-73.62057373962509,90,038c0e9e703623cef62123e5e5d4a5d2
4adf33eef964a520497821e3,Kitchen Galerie,"60 Jean-Talon E. (St Dominique), Montréal QC H2R 1S5",45.53527637359138,-73.61696356038233,202,038c0e9e703623cef62123e5e5d4a5d2
548f5fec498e19e6e8b9f5da,Brasserie Harricana,"95 Jean-Talon Ouest (Saint-Urbain), Montréal QC H2R 2W8",45.53368649748613,-73.61929131033779,238,038c0e9e703623cef62123e5e5d4a5d2
4babba9bf964a5205bc43ae3,Café Larue & Fils,"244 de Castelnau Est (at Henri-Julien), Montréal QC H2R 1P5",45.537802,-73.618002,245,038c0e9e703623cef62123e5e5d4a5d2
4b05bef5f964a52044e222e3,Le Petit Alep Bistro,"191, rue Jean-Talon Est (Gaspé), Montréal QC H2R 1S8",45.53638472772476,-73.61622532046992,257,038c0e9e703623cef62123e5e5d4a5d2
4b5244b9f964a520d57327e3,Alep,"199 Jean-Talon Est (Gaspé), Montréal QC H2R 1S8",45.536481956339586,-73.61637330798594,249,038c0e9e703623cef62123e5e5d4a5d2
4c30ec5f452620a1b4db1f0f,El Rey del Taco,"234 rue Jean-Talon Est (coin Casgrain), Montréal QC H2R 1S7",45.53639235771873,-73.61593620884341,279,038c0e9e703623cef62123e5e5d4a5d2
4af203b1f964a52026e521e3,Café Bistro l'Enchanteur,"7331, avenue Henri-Julien (de Castelnau), Montréal QC H2R 2B1",45.53797600618295,-73.61812570262417,259,038c0e9e703623cef62123e5e5d4a5d2
4dc627f4b0fb5556cd042ce6,Le Pourvoyeur,"184 rue Jean-Talon Est (Marché Jean-Talon), Montréal QC H2R 1S7",45.53599571323056,-73.61641927969916,235,038c0e9e703623cef62123e5e5d4a5d2
4b42975ef964a5202fd725e3,Le Marquis sans Gluten,"367, de Castelnau est (St-Denis), Montréal QC H2R 1R1",45.5387234044998,-73.61790129545976,342,038c0e9e703623cef62123e5e5d4a5d2
4fcbaddde4b00a0e8530de88,l'Eggs Oeuf du Marche,"7143 rue Saint-Dominique (Jean Talon), Montréal QC H2S 3B8",45.535162798803164,-73.61695981154502,206,038c0e9e703623cef62123e5e5d4a5d2
4b6302d8f964a520905d2ae3,Première Moisson,"7075 rue Casgrain (Marché Jean-Talon), Montréal QC H2S 3A3",45.53548217403967,-73.61560170999411,300,038c0e9e703623cef62123e5e5d4a5d2
51168298e4b0003772879d2d,Le Pain Dans les Voiles,"357 Rue de Castelnau Est, Montréal QC H2R 1R1",45.538667618832456,-73.61785098527037,338,038c0e9e703623cef62123e5e5d4a5d2
4b6e00ccf964a5209ea22ce3,Primo i Secondo,"St dominique (Mozart), Montréal QC H2S 3B6",45.53445766061076,-73.61533726094247,353,038c0e9e703623cef62123e5e5d4a5d2
4ff358cee4b054fba8d01d88,Joe la Croute,"7024, ave. Casgrain, Montréal QC H2S 3A2",45.53469282845136,-73.61495730975004,370,038c0e9e703623cef62123e5e5d4a5d2
4b8bd8acf964a52058ae32e3,Crêperie du Marché,"7070 Ave Henri-Julien (Marché Jean-Talon), Montréal QC H2S 3S3",45.536243931928105,-73.61473370370591,368,038c0e9e703623cef62123e5e5d4a5d2
5516ddc6498e4a598e1d3cb7,Makoto,"7112 Saint-Laurent, Montréal QC H2S 3E2",45.534021037883974,-73.61721290043083,265,038c0e9e703623cef62123e5e5d4a5d2
4fa5808fe4b05ddd672e12a0,La Boite Aux Huîtres,"7070 Henri Julien (Marché Jean Talon), Montréal QC H2S 3S3",45.53651003116592,-73.61501721105,352,038c0e9e703623cef62123e5e5d4a5d2
5849d31423188e1e7a58e397,Marconi,"45 Avenue Mozart O, Montréal QC H2S 1C1",45.53296717179756,-73.61596657725607,417,038c0e9e703623cef62123e5e5d4a5d2
5598008b498e69837a136c37,Café Saint-Henri,"260 Place du Marché nord, Montréal QC H2S 1A1",45.535949252750804,-73.61407001069685,417,038c0e9e703623cef62123e5e5d4a5d2
4aea40f1f964a52087ba21e3,Pho Lien,"5703-B Chemin De la Côte-des-Neiges (Côte-St-Catherine), Montréal QC H3S 1Y7",45.49875731844573,-73.62772406679326,324,03b603c4b20174089f79116554c9c199
52402291498e092fae6fbe2e,Allô Mon Coco,"5685 Cote-des-neiges, Montréal QC H3T 1Y8",45.498703313849674,-73.62708844832288,347,03b603c4b20174089f79116554c9c199
4b0581fbf964a520e35822e3,Restaurant Talay Thai,"5697 ch. de la Côte-des-Neiges, Montréal QC H3S 1Y7",45.498976067037226,-73.62763018346006,349,03b603c4b20174089f79116554c9c199
4c01a22127dcc928a1e5e052,Restaurant Delicieux,"5665 Chemin de la Côte-des-Neiges, Montréal QC H3T 1Y8",45.498649569239326,-73.62694138924029,350,03b603c4b20174089f79116554c9c199
4b81e2baf964a520afc230e3,Sushi Shop,"5640 de la Côte-Des-Neiges Ch, Château Dupuis, Montréal QC H3T 1Z2",45.49808390574633,-73.62682575248145,311,03b603c4b20174089f79116554c9c199
51c10170498efff55d2996d6,Restaurant Tuk Tuk,"5619-A Ch. De La Côte-Des-Neiges, Montréal QC H3T 1Y8",45.49838285877393,-73.62610931780856,375,03b603c4b20174089f79116554c9c199
54e7a171498ec4fb5fdaecd6,Brit & Chips,"5536  Cote-des-neiges, Montréal QC H3T 1Y8",45.4972696652687,-73.62500705767073,393,03b603c4b20174089f79116554c9c199
4c15243f7f7f2d7f71f7e168,Poissonnerie & Restaurant Rayan,"6080 Ch. de la Côte-des-Neiges, Montréal QC H3S 1Z7",45.50020204195793,-73.63149661056025,458,03b603c4b20174089f79116554c9c199
4b0d6687f964a520864723e3,Ngan Dinh,"5540-A Côte-des-Neiges, Montréal QC",45.49737917184597,-73.6252043826118,382,03b603c4b20174089f79116554c9c199
4c2794bef1272d7fbf6b88c5,Thai Express,"5660 Ch Côte-Des-Neiges (Château Dupuis), Montréal QC H3T 1Z2",45.49808592119508,-73.6267289715167,317,03b603c4b20174089f79116554c9c199
550349e4498ead60ce419151,Sushi Plus,"5940 Ch de la Côte-Des-Neiges, Montréal QC H3S 1Z5",45.49982182226535,-73.63066069914498,402,03b603c4b20174089f79116554c9c199
4da8c42c43a1128196cc376e,Kabab Express,"5567A Cote-Des-Neige, Montréal QC H3T 1Y8",45.49788907230544,-73.62526972307322,400,03b603c4b20174089f79116554c9c199
4be892fa88ed2d7f220fcc1d,Mikes,"5685 chemin Côte-des-Neiges (Chemin de la Côte-Sainte-Catherine), Montréal QC H3T 1Y8",45.498701298108756,-73.62718523063882,342,03b603c4b20174089f79116554c9c199
4ad4c06df964a5203cfa20e3,Atami Restaurant,"5499, Ch De La Cote-Des-Neiges, Montréal QC H3T 1Y8",45.49745305640486,-73.62438364007842,445,03b603c4b20174089f79116554c9c199
4b22e7d7f964a5200e5024e3,Dao Vien,"5623A Cote des  Neiges, Montréal QC H2G 2L9",45.49837681377029,-73.62639966257589,357,03b603c4b20174089f79116554c9c199
5d082a66f8cbd4002c9c7ea8,Krispy Kreme,"5737 Cote des Neiges, Montréal QC H3S 1Y7",45.4993086116847,-73.62802863716786,368,03b603c4b20174089f79116554c9c199
567a0482498ed76811f9c573,Farhat,"5785 Côte Des Neiges (Ellendale), Montréal QC H3S 1Y8",45.49968884819379,-73.62886451479565,390,03b603c4b20174089f79116554c9c199
4f847a57e4b013f8f54951c2,Brit & Chips,"5536A, chemin de la Côte-des-Neiges (Saint-Kevin), Montréal QC H3T 1Y8",45.49727167919571,-73.62491027852883,400,03b603c4b20174089f79116554c9c199
4f3d4221e4b0e6029123920e,Pizzaway,Montréal QC,45.49788907230544,-73.62526972307322,400,03b603c4b20174089f79116554c9c199
4b551bf4f964a5206adb27e3,Chez Thi,"5557A Cote-des-Neiges (St-Kevin), Montréal QC h3t1y8",45.49777755122255,-73.62516917595411,401,03b603c4b20174089f79116554c9c199
496538377f6a407c66b4524b,Mia Pizza,"1409 Desaulniers Blvd, Longueuil QC J4K 1L3",45.51389313195395,-73.50562631039678,304,0443c94a529a06a28f0d1cc3f287b74f
66e31564a7194959d1674eb9,Chez Simon Cantine Urbaine Longueuil,Longueuil QC J4K 1N1,45.52008,-73.50523,407,0443c94a529a06a28f0d1cc3f287b74f
4d9f000e7f1b721ecc82930f,Efes,"689, rue St-Roch, Montréal QC",45.528810070262665,-73.63007586269673,368,0452673f5a00e6632a35b91e7aa195cb
4c2a8db9bbc7e21e1d773582,Restaurant Sana,"655 rue Jarry O., Montréal QC H3N 1G3",45.53112959370535,-73.63601678535638,368,0452673f5a00e6632a35b91e7aa195cb
4f19df87e4b0aa50932c7d0e,Elatos,"550 rue jarry o. (Qurbes), Montréal QC H3N 1E9",45.53159803382874,-73.63535399586684,307,0452673f5a00e6632a35b91e7aa195cb
4bae7d88f964a520cfb83be3,Pâtisserie Afroditi,"756 rue St-Roch, Montréal QC H3N 1L3",45.5283020412123,-73.62991357495049,426,0452673f5a00e6632a35b91e7aa195cb
4b6e7d46f964a5206ebf2ce3,Tripoli Restaurant,"679, rue Saint-Roch (Bloomfield), Montréal QC H3N 1L2",45.528983449009445,-73.62993626309617,353,0452673f5a00e6632a35b91e7aa195cb
4b1c2c1bf964a520820324e3,Marven's Restaurant,"880 avenue Ball (Wiseman), Montréal QC H3N 1J7",45.52826710924192,-73.63374051654519,450,0452673f5a00e6632a35b91e7aa195cb
4b79bedaf964a5204c0f2fe3,India Beau Village,"640 Jarry St W, (Avenue Champagneur), Montréal QC H3N 1G6",45.53090852013987,-73.63571863358581,353,0452673f5a00e6632a35b91e7aa195cb
5023f3a4e4b053b46e258e28,Bistro SAQ - Coupe Rogers,Montréal QC,45.53426821006895,-73.62720444198013,415,0452673f5a00e6632a35b91e7aa195cb
4c12d58977cea59327d4cd60,Dera,"790 Jarry Rue O, Montréal QC H3N 1G6",45.529874255373,-73.63626556920164,442,0452673f5a00e6632a35b91e7aa195cb
4e83b6a27beb04b92cdc2f43,Olympic Restaurant,"4249 Hochelaga, Montréal QC H1V 1B8",45.55402628832699,-73.54752552902987,100,04c57a547249150f2e0fea6c07bd3037
515652f6e4b03caa16c1eb37,Poutine Centrale,"3971 rue Hochelaga, Montréal QC H1W 1K2",45.551338911380945,-73.54914497682114,418,04c57a547249150f2e0fea6c07bd3037
51b27ac2498ee782e77299af,Sandwicherie Zoe's,Montréal QC,45.5554640550658,-73.54951004567285,243,04c57a547249150f2e0fea6c07bd3037
4e0258c3ae609fa8ede55cb4,Bar Santé,"4500 Hochelaga, Montréal QC",45.55653724186122,-73.54496240043032,244,04c57a547249150f2e0fea6c07bd3037
4f52555ee4b0754d57782998,Fusion Express,"3974, Avenue Pierre De Coubertin, Montréal QC H1W 1E7",45.55256960581491,-73.55213370851148,488,04c57a547249150f2e0fea6c07bd3037
6230c1ee55e26d432a3d84c6,L’insolite,Montréal QC,45.555846,-73.550819,353,04c57a547249150f2e0fea6c07bd3037
51b27789498eef5f8e17c414,Route 27,,45.55514399709797,-73.55129379722467,368,04c57a547249150f2e0fea6c07bd3037
55443f64498e721a6ed83831,Les Premiers Vendredis,,45.55462437003726,-73.55161774465122,390,04c57a547249150f2e0fea6c07bd3037
4bb6442bef159c74a3ad75f7,Restaurant Jimmy,"3924 rue Hochelaga (coin Orleans), Montréal QC H1W 1J9",45.55075677194703,-73.54902243473042,472,04c57a547249150f2e0fea6c07bd3037
4bc2512b2a89ef3baba4f388,La Cage,"2650 Chemin de Chambly, Longueuil QC J4L 1M5",45.522261745225,-73.465450161036,31,04ebd17e6953392a76c763787d4e8970
4bd20bcd41b9ef3b3034fde5,McDonald's,"2689 Chemin De Chambly (at Jacques-Cartier), Longueuil QC J4L 1M3",45.52329503567558,-73.46647965904302,165,04ebd17e6953392a76c763787d4e8970
4be6acaed4f7c9b628f32620,Eggsquis,"2877 chemin Chambly, Longueuil QC J4L 1M8",45.52088498662285,-73.46185488505898,288,04ebd17e6953392a76c763787d4e8970
4b9facd2f964a520d13337e3,Rôtisseries Benny,"2800 Chemin de Chambly, Longueuil QC J4L 1M9",45.5203926,-73.4627291,269,04ebd17e6953392a76c763787d4e8970
4bf01669d4e4d13a36d415a7,Alfa,"2497 Ch de Chambly (at Rue Beaubien), Longueuil QC J4L 1M2",45.523942555046126,-73.46824281570636,315,04ebd17e6953392a76c763787d4e8970
4d8244232fb73704b7248911,Restaurant Montaza,"2877 Chambly, Longueuil QC J4L 1M8",45.52204494151869,-73.46062964949233,344,04ebd17e6953392a76c763787d4e8970
4d461c3014aa8cfae0bf793d,Première Moisson Longueuil,"2479, chemin de Chambly, Longueuil QC J4L 1M2",45.52410631262444,-73.46858678109862,347,04ebd17e6953392a76c763787d4e8970
598559134c954c79641a8c1a,Taiyo,"2480 ch de Chambly, Longueuil QC J4L 3Y4",45.52386602085769,-73.46925786410551,376,04ebd17e6953392a76c763787d4e8970
4f9472e1e4b0242d6231684b,El Toro,"Chemin De Chambly (Jules-Roche), Longueuil QC",45.52427006946652,-73.46893074911519,380,04ebd17e6953392a76c763787d4e8970
4cdc96926ad1a09373abf256,Valentine,Longueuil QC,45.52159,-73.45979,415,04ebd17e6953392a76c763787d4e8970
4bbba3e0e452952186f554a4,Basha,"2877 Ch de Chambly, Longueuil QC",45.520749334461584,-73.46005860269896,420,04ebd17e6953392a76c763787d4e8970
51244e7de4b08956f6c89096,Chez Moi aka Sandrakula,"432 Boul Jacques Cartier Ouest, Longueuil QC J4L 2R9",45.5178335385556,-73.46394447723648,492,04ebd17e6953392a76c763787d4e8970
4d8cf001788c5481698315fd,Sandwiches Cao Lanh,"2651 Ontario Est (Gascon), Montréal QC H2K 1X1",45.534332756825464,-73.55189758230183,73,04f6eaaa0d7993020973687c13f41663
4bd319f79854d13ae2dbfc4d,Wawel,"2543 Ontario Rue E (coin Frontenac), Montréal QC H2K 1W5",45.53294841884956,-73.55291998854374,102,04f6eaaa0d7993020973687c13f41663
4f4ffb8be4b025ca88455d61,Kiên Giang Express,"2669 Rue Ontario Est, Montréal, QC H2K 1W8, Montréal QC H2K 1X1",45.53439051904724,-73.55185094495447,80,04f6eaaa0d7993020973687c13f41663
4c433e7daf052d7f09168079,Pizza Madona,"2002, rue Frontenac, Montréal QC H2K 2Z3",45.53317946667654,-73.55273344938388,72,04f6eaaa0d7993020973687c13f41663
4c716661344437048fc8265f,Subway,"2544 Ontario East (coin Frontenac), Montréal QC H2K 1W4",45.532784894238766,-73.55257562179375,106,04f6eaaa0d7993020973687c13f41663
4eac24bd0aafb00bd9428b99,Restaurant Pho Ontario,"2663 Ontario Est (Gascon), Montréal QC H2K 1X1",45.53439051904724,-73.55185094495447,80,04f6eaaa0d7993020973687c13f41663
4bbe4965a55c76b0f3c16ee0,Restaurant Bercy,"2600 Ontario (Du Havre), Montréal QC",45.533666929627785,-73.55110123945414,84,04f6eaaa0d7993020973687c13f41663
636169ee49d99e7ef08ed2ef,Café La Ligne Verte,Montréal QC H2K 1W5,45.53294841884956,-73.55291998854374,102,04f6eaaa0d7993020973687c13f41663
4e7e255102d59de1bbf29e5c,Épicerie Hiep Phat,"2679 Ontario Rue E, Montréal QC H2K 1X1",45.534619616775274,-73.55176125231074,106,04f6eaaa0d7993020973687c13f41663
4b859deaf964a520e66831e3,McDonald's,"2600 rue Ontario Est (coin Du Havre), Montréal QC H2K 4K4",45.533391948501475,-73.55087803600725,107,04f6eaaa0d7993020973687c13f41663
4b6cb58cf964a520fd4d2ce3,La Guadalupe Mexicaine,"2345 Ontario Est (Fullum), Montréal QC H2K 1W2",45.53097865731284,-73.5547960448002,365,04f6eaaa0d7993020973687c13f41663
4c7c4c6f48c6236ad16a6111,Marché Zhong,"1748 d'Iberville Rue, Québec",45.53117812096732,-73.55053821735133,308,04f6eaaa0d7993020973687c13f41663
5144d97ce4b0b6e40b0b9589,Bonne Bouffe Souvlaki,"2301 Ontario Rue E, Montréal QC H2K 1W2",45.53063013295132,-73.5551726728044,413,04f6eaaa0d7993020973687c13f41663
57755298cd1094ecf3d0b8b9,Ad Hoc Fish & Chips,"2281 Rue Ontario E, Montréal QC H2K 1V9",45.53034132457624,-73.55540581776133,450,04f6eaaa0d7993020973687c13f41663
4e8ce03c93ad5f40cda50e71,Ikaros,"2054, Rue Fullum (Ontario), Montréal QC H2K 3N7",45.530724155374706,-73.55614475982682,452,04f6eaaa0d7993020973687c13f41663
4ad4c06df964a52044fa20e3,ChuChai,"4088 rue Saint-Denis (entre Duluth & Rachel), Montréal QC H2W 2M5",45.52100654814117,-73.5765787264243,64,052eb3e7422cdd1cdc5d555cf8d05c98
59d3ac7a396de05f514d2ac2,Le P'tit Rustik,"4057, rue Drolet (Coin avenue Duluth Est), Montréal QC H2W 2L5",45.52042186350047,-73.57665023760819,59,052eb3e7422cdd1cdc5d555cf8d05c98
4b9bbaddf964a520bc1e36e3,Au Festin de Babette,"4085 rue Saint-Denis, Montréal QC H2W 2M7",45.52106312911193,-73.57648759305552,64,052eb3e7422cdd1cdc5d555cf8d05c98
510184c6e4b052bb765a20d6,Saint Sushi Bar,"424 Duluth Ave E, Montréal QC H2L 1A3",45.52117754401502,-73.57547372250852,71,052eb3e7422cdd1cdc5d555cf8d05c98
4bce50d0ef1095214dfe8386,I 'love' Sushi,"4108 St Denis, Montréal QC",45.52104150575661,-73.57691235723708,87,052eb3e7422cdd1cdc5d555cf8d05c98
4b369b9cf964a520093925e3,L'Express,"3927, rue Saint-Denis (entre Duluth & Roy), Montréal QC H2W 2M4",45.52021234200692,-73.57449132621902,122,052eb3e7422cdd1cdc5d555cf8d05c98
4ad4c06ef964a520c6fa20e3,Chuch Végéthaïexpress,"4094 rue Saint-Denis, Montréal QC H2W 2M5",45.52122269419616,-73.57638526251942,74,052eb3e7422cdd1cdc5d555cf8d05c98
4b314190f964a5205f0325e3,Brûlerie St-Denis,"3967 rue Saint-Denis (Entre rue Duluth et rue Roy), Montréal QC H2W 2M4",45.520483900995565,-73.57512383137889,66,052eb3e7422cdd1cdc5d555cf8d05c98
50570b34e4b07ba3e7a5710b,Zephire,"4053 (St-Denis), Montréal QC",45.52100346446978,-73.57599065768261,41,052eb3e7422cdd1cdc5d555cf8d05c98
4b9b511af964a520160036e3,La Prunelle,"327 Avenue Duluth E. (coin Drolet), Montréal QC H2W 1J1",45.520136981054414,-73.57668953939785,79,052eb3e7422cdd1cdc5d555cf8d05c98
5765cff1498ec123bd8e82a8,L'Gros Luxe Plateau,"451 Avenue Duluth Est, Montréal QC H2L 1A6",45.52146953320311,-73.57542424954028,102,052eb3e7422cdd1cdc5d555cf8d05c98
4ad4c06df964a52057fa20e3,Khyber Pass,"506 rue Duluth Est (coin av. de Chateaubriand), Montréal QC H2L 1A7",45.52190145852766,-73.57476284079337,169,052eb3e7422cdd1cdc5d555cf8d05c98
52abad50498e04bc8ba2cf33,Los Planes Gourmet,"4115 St-Denis, Montréal QC H2W 2M7",45.52143995031466,-73.57687670148302,115,052eb3e7422cdd1cdc5d555cf8d05c98
4be6efedbcef2d7fc89e05e5,Les Co'Pains d'Abord,"418 rue Rachel Est (St-Denis), Montréal QC H2J 2G7",45.522078,-73.577743,213,052eb3e7422cdd1cdc5d555cf8d05c98
4ad4c06bf964a52046f920e3,Au Pied de Cochon,"536 Ave. Duluth Est. (at Ave. Duluth Est & Ave. de Chateaubriand), Montréal QC H2L 1A9",45.522250490482186,-73.57442105651971,216,052eb3e7422cdd1cdc5d555cf8d05c98
551b2b42498e5f30135c886f,Yokato Yokabai,"4185 rue Drolet (coin Rachel), Montréal QC H2W 2L5",45.52123122917715,-73.57864124562852,220,052eb3e7422cdd1cdc5d555cf8d05c98
4ad4c06ef964a520bafa20e3,La Piazzetta Saint-Denis,"4097 rue Saint-Denis, Montréal QC H2W 2M7",45.52127454268697,-73.57662915898601,89,052eb3e7422cdd1cdc5d555cf8d05c98
564fd7b5498e782bc37e594f,Ichigo Ichie,"360, rue Rachel Est (coin Drolet), Montréal QC H2W 1E9",45.52129481530911,-73.57842233390394,206,052eb3e7422cdd1cdc5d555cf8d05c98
4b2ea24bf964a520f9e324e3,Le Jardin de Panos,"521 Duluth Est (btw Berri & St-Hubert), Montréal QC H2L 1A8",45.5221382357349,-73.5747214165112,193,052eb3e7422cdd1cdc5d555cf8d05c98
575874a6498ec647489e3952,Café Reine Garçon,"611 Duluth Est (St-Hubert), Montréal QC H2L 1A9",45.52239575554991,-73.5745818948523,223,052eb3e7422cdd1cdc5d555cf8d05c98
4e6ac2cc1f6e1e74e4619b21,Spanel Crêpes & Gourmets,"1960 rue Notre-Dame O, Montréal QC H3J 1M8",45.486604,-73.569557,61,05b5b355a4772304d10c45029d08deb0
543fe84c498e5a727e2b9532,Junior,"1964 rue Notre-Dame Ouest, Montréal QC H3J 1M8",45.48653958573747,-73.56951233436168,61,05b5b355a4772304d10c45029d08deb0
4bede68b2c082d7faeb32f42,Le Boucan,"1886 rue Notre-Dame-Ouest (coin Des Seigneurs), Montréal QC H3J 1M6",45.48739834554362,-73.56914488373818,146,05b5b355a4772304d10c45029d08deb0
5793e6d5498e446d8987f270,Café LaLi,"1850 Rue Notre-Dame O (Rue des Seigneurs), Montréal QC H3J 1M5",45.487808009605395,-73.56858462910117,209,05b5b355a4772304d10c45029d08deb0
5c5ee6b0018cbb002c1f7e35,Le Trou - Fabrique de Bagel,"1845 Rue William, Montréal QC H3J 0A5",45.48726201796943,-73.56750221005187,237,05b5b355a4772304d10c45029d08deb0
55df496d498eac393a801eb6,Bird Bar,"1800, rue Notre-Dame O (coin St-Martin), Montréal QC H3J 1M5",45.48820829347639,-73.56845216807066,251,05b5b355a4772304d10c45029d08deb0
5672f1bd498e8b94b96a6a18,Restaurant Candide,"551 rue Saint Martin, Montréal QC H3J 2L6",45.488329682566246,-73.56806875756389,279,05b5b355a4772304d10c45029d08deb0
50b6380bd63e3423fc47d02a,Grinder,"1708 rue Notre-Dame Ouest (entre Richmond & St-Martin), Montréal QC H3J 1M3",45.48890941333442,-73.5680456652903,334,05b5b355a4772304d10c45029d08deb0
52a2295f498e07d2b6320695,Sushi Taxi,"1744 Notre Dame Ouest, Montréal QC H3J 1M3",45.488498986294005,-73.56812256713984,292,05b5b355a4772304d10c45029d08deb0
56210f56498e8dfc356df56c,Foxy,"1638, rue Notre-Dame Ouest (entre Guy & Richmond), Montréal QC H3J 1M1",45.48945994355852,-73.56771777952468,400,05b5b355a4772304d10c45029d08deb0
558d7cc7498e08911f30ffc1,Marché Italien le Richmond,"333 Richmond St, Montréal QC H3J 1T9",45.4885980000921,-73.56604407080451,413,05b5b355a4772304d10c45029d08deb0
50bfe73ce4b0a80fdba120c1,Le Bureau Bar Tapas,"1642 rue Notre-Dame O (entre Richmond & Guy), Montréal QC H3J 1M1",45.4897275,-73.5675056,434,05b5b355a4772304d10c45029d08deb0
525d875c498ec39e2ae9296b,Le Richmond,"377 rue Richmond, Montréal QC H3J 1T9",45.488686442890085,-73.56652437293022,390,05b5b355a4772304d10c45029d08deb0
586d912d2948b324288bb91b,Mauvais Garçons,"1830 William, Montréal QC H3J 1R5",45.4871025425689,-73.56696462816076,269,05b5b355a4772304d10c45029d08deb0
62b09e739e8dcf3d68a40f96,Nolan,"1752 Rue Notre-Dame Ouest, Montréal QC H3J 1M3",45.488439274825936,-73.56826589421055,281,05b5b355a4772304d10c45029d08deb0
5a98a3481de76524ea6cb82b,Makro,"1726 Notre-Dame O, Montréal QC H3J 1M3",45.48861251094435,-73.56812618756699,303,05b5b355a4772304d10c45029d08deb0
5b687c05db1d81002c4453c4,Le Mackro,"1726 Rue Notre-Dame O, Montréal QC H3J 1M3",45.48889927210708,-73.56799009995684,335,05b5b355a4772304d10c45029d08deb0
4c813c0351ada1cdb0df1010,La Gargote des Antiquaires,"1708 rue Notre-Dame Ouest (Guy), Montréal QC H3J 1M3",45.48895701759125,-73.56794353036712,343,05b5b355a4772304d10c45029d08deb0
5f27450633646a5aea192a1c,Ayla,"386 Rue Richmond, Montréal QC H3J 0B9",45.488466793424365,-73.5669112795254,352,05b5b355a4772304d10c45029d08deb0
61a2e5617b0b0420f2f8c35c,Ryu,"388 Rue Richmond, Montréal QC H3J 0B9",45.488522573177974,-73.5669614673528,353,05b5b355a4772304d10c45029d08deb0
4b897d61f964a520643b32e3,G. La Frite,"396, rue St-Antoine (4e Avenue), Lachine QC H8S 1S4",45.440154095761635,-73.66741401721012,473,05b85e5c98d9b14b3c7bcfbb8e60723b
917a5babdb1442257fa95f96,Faycil caribbean bakery and restaurant,"5 Provost Rue, Lachine QC H8M 1S2",45.44210738391977,-73.66365976885163,466,05b85e5c98d9b14b3c7bcfbb8e60723b
62c1e86e5c7ad929dd2ab705,Punjab Canteen,"695 Rue De Liège O, Montréal QC H3N 1A9",45.53225128885651,-73.64216046318299,125,05d84e15f73c72c1037f6c978bffe09e
22d0022f63224c39031c74e3,Buffalo Bill,"700 Cremazie Blvd O, Montréal QC H3N 1A1",45.53329771057763,-73.64646034839522,325,05d84e15f73c72c1037f6c978bffe09e
50a2d52fe4b04466269ba8a1,Boulangerie Elmont,"8275 Durocher (Anvers), Montréal QC H3N 2A8",45.53359175643386,-73.63784377842163,346,05d84e15f73c72c1037f6c978bffe09e
4c6eb55ba437224bdda430b1,Arouch Lahmajoun,"917 de Liege St. West (Stuart Ave.), Montréal QC H3N 1B5",45.53029421526224,-73.643354715611,352,05d84e15f73c72c1037f6c978bffe09e
505cb594e4b0b64eba500d02,Pâtisserie Mahrousé,"1010 De Liège (L'Acadie & Birnam), Montréal QC H3N",45.52960468217369,-73.6437192211389,433,05d84e15f73c72c1037f6c978bffe09e
4ad4c06df964a520a3fa20e3,Chez Gatsé,"317 Ontario E (Sanguinet), Montréal QC H2X 1H7",45.51507609043152,-73.56572510477042,164,068b8514c4f15a3d822da22705e1906c
502fd36ce4b0d68f37e0ea5a,Saint-Henri micro-torréfacteur,"301 rue Emery (entre St-Denis & Sanguinet), Montréal QC H2X 1J2",45.51427961653721,-73.56398881193213,216,068b8514c4f15a3d822da22705e1906c
4f3864b9e4b0ea2d7eefaf87,Darbar,"2027 Boulevard Saint-Laurent, Montréal QC H2X 2T3",45.51163617022342,-73.5672623640551,238,068b8514c4f15a3d822da22705e1906c
59f4d4401acf113e703e6a63,Café Origine,"8 Rue Sherbrooke Ouest (Boukevard Saint-Laurent), Montréal QC H3S",45.512254,-73.569306,264,068b8514c4f15a3d822da22705e1906c
4b43d627f964a5208beb25e3,Pizzeria Dei Compari,"1668 rue Saint-Denis (coin de Maisonneuve), Montréal QC H2X 3K6",45.515121525991006,-73.56354716343148,286,068b8514c4f15a3d822da22705e1906c
4adbe89cf964a520122b21e3,Frite Alors,"1710, rue Saint-Denis (entre Ontario et Emery), Montréal QC H2X 3K6",45.51550907929297,-73.56436236122725,265,068b8514c4f15a3d822da22705e1906c
4d920503f5388cfa1a81c23d,Bouillon Bilk,"1595, boul. Saint-Laurent (entre De Maisonneuve & Ontario), Montréal QC H2X 2S9",45.510943,-73.565777,318,068b8514c4f15a3d822da22705e1906c
4ba431bbf964a520d98a38e3,Le Pèlerin-Magellan,"330 rue Ontario Est (entre St-Denis & Sanguinet), Montréal QC H2X 1H6",45.515189643273004,-73.56572872124181,176,068b8514c4f15a3d822da22705e1906c
4f9650777716e44fa852cab4,M4 Burritos,"1773 rue Saint-Denis (coin Ontario), Montréal QC H2X 3K4",45.51587655687322,-73.56496902342614,271,068b8514c4f15a3d822da22705e1906c
4b1099c0f964a5208a7323e3,Resto Végo,"1720 rue Saint-Denis, Montréal QC H2X 3K6",45.515628630000144,-73.5646113620004,263,068b8514c4f15a3d822da22705e1906c
56af6054498e4972bcba5431,Osmo X Marusan,"51, rue Sherbrooke Ouest (coin Clark), Montréal QC H2X 1X2",45.511909,-73.570065,334,068b8514c4f15a3d822da22705e1906c
54767635498ee8c8c4f3ae4e,Patrick's Pub,"1707 rue Saint-Denis (entre Ontario & De Maisonneuve), Montréal QC H2X 3K4",45.51550787474306,-73.56404346839705,282,068b8514c4f15a3d822da22705e1906c
5bad0cbd3fcee8002b5dc734,Omnivore,"1633 rue Saint-Denis Montréal, Montréal QC H2X 3K3",45.51513299762976,-73.56291744226563,329,068b8514c4f15a3d822da22705e1906c
4beb3b5262c0c92874eae1d4,Vua Sandwichs,"1579, rue Saint-Denis (entre De Maisonneuve & Émery), Montréal QC H2X 3K3",45.51472709120158,-73.56241418390685,348,068b8514c4f15a3d822da22705e1906c
4d910af280d33704ae869306,Sushi St-Denis,"1669, rue Saint-Denis (coin Emery), Montréal QC H2X 3K4",45.51523660423288,-73.56359509027267,290,068b8514c4f15a3d822da22705e1906c
544fcf2c498e2fee8be86530,Saint-Houblon,"1567 Saint-Denis (coin De Maisonneuve), Montréal QC H2X 3K3",45.51460065816763,-73.56226755496593,355,068b8514c4f15a3d822da22705e1906c
574cbb4e498e0838882fe94b,S.O. Qun,"1587 Saint-Denis (Emery), Montréal QC H2X 3K3",45.514913736121095,-73.56252296180017,347,068b8514c4f15a3d822da22705e1906c
4ff36ddde4b036acf944f94b,Pizza Saint Laurent,"24 Ontario E, Montréal QC H2X 3W2",45.51159609412655,-73.56643768266656,239,068b8514c4f15a3d822da22705e1906c
4be1a3cbcd81a5936ca0931c,Taiyo Sushi,"2073 rue St-Denis, Montréal QC",45.51654050420949,-73.56635303516256,311,068b8514c4f15a3d822da22705e1906c
56ec4544498e27e294330c2b,Cadet,"1431, boul. Saint-Laurent (entre De Maisonneuve & Ste-Catherine), Montréal QC H2X 2S8",45.51025997938528,-73.56458439677048,419,068b8514c4f15a3d822da22705e1906c
5870fd7e0aac7528e9fc5322,La Boite à Café,"4200 Ch de la Savane, Saint-Hubert QC J3Y 0P6",45.51159,-73.432853,171,069fc3a3bf5c8c49c7f8df245717a550
4f52555ee4b0754d57782998,Fusion Express,"3974, Avenue Pierre De Coubertin, Montréal QC H1W 1E7",45.55256960581491,-73.55213370851148,235,070d632adc6f3a46d7b038b5ec82abb6
5bca0ee7898bdc002c7b1d4e,Bento Sushi,"3800 Sherbrooke Est, Montréal QC H1X 2A2",45.551088,-73.553539,98,070d632adc6f3a46d7b038b5ec82abb6
4e89c25f775b4a1123adcf5c,Café L'Escale,"3800, rue Sherbrooke Est, Montréal QC H1X 2A2",45.550558,-73.553606,129,070d632adc6f3a46d7b038b5ec82abb6
4c3a7a080a71c9b60d6144c9,La Belle Province Plus,"3929 rue Sherbrooke Est (Orleans), Montréal QC H1X 3E3",45.55289981273248,-73.55548923048872,173,070d632adc6f3a46d7b038b5ec82abb6
515652f6e4b03caa16c1eb37,Poutine Centrale,"3971 rue Hochelaga, Montréal QC H1W 1K2",45.551338911380945,-73.54914497682114,432,070d632adc6f3a46d7b038b5ec82abb6
6262d7c180170c470b991aa5,Sandwich Par Ici,Montréal QC H1W 1E4,45.54880859831173,-73.55545676872862,298,070d632adc6f3a46d7b038b5ec82abb6
5a7c97274940bc4e606663dc,Jardin des Délices,"3537 rue Rachel Est, Montréal QC H1W",45.54954505886489,-73.55838863884968,356,070d632adc6f3a46d7b038b5ec82abb6
6cf9f90db313487335e6b0bd,Signature la Bonne Fourchette,"3537 Rachel Rue E, Montréal QC H1W 1A8",45.54942951306349,-73.55848192868561,369,070d632adc6f3a46d7b038b5ec82abb6
4bb6442bef159c74a3ad75f7,Restaurant Jimmy,"3924 rue Hochelaga (coin Orleans), Montréal QC H1W 1J9",45.55075677194703,-73.54902243473042,448,070d632adc6f3a46d7b038b5ec82abb6
55443f64498e721a6ed83831,Les Premiers Vendredis,,45.55462437003726,-73.55161774465122,426,070d632adc6f3a46d7b038b5ec82abb6
586857379e35d309bf98b00f,Marché Soleil,"4005 Hochelaga Rue, Montréal QC H1W 1K2",45.55172326876797,-73.54900439003048,444,070d632adc6f3a46d7b038b5ec82abb6
51b27789498eef5f8e17c414,Route 27,,45.55514399709797,-73.55129379722467,489,070d632adc6f3a46d7b038b5ec82abb6
4d9a117bb188721ea1aa4c37,Poutineville,"1348, rue Beaubien Est (De Lanaudière), Montréal QC H2G 1K8",45.54062213240077,-73.59898411288988,327,07151bf35f8c11187f1e4e0c0311b250
585ea77c0037eb3be73d1e62,Café Chiado no.28,"1404 Beaubien Est, Montréal QC H2G 1K9",45.541121792201416,-73.59805945846747,299,07151bf35f8c11187f1e4e0c0311b250
5009df5ae4b02b2a7eae58b7,Itamea,"1283 Beaubien, Montréal QC H2S 1V1",45.53955361896323,-73.59970472439045,350,07151bf35f8c11187f1e4e0c0311b250
4c76f5abf2473704e9af64eb,Pat'e Palo,"1376 rue Beaubien Est, Montréal QC H2G 1K9",45.54088467811938,-73.59853642169854,312,07151bf35f8c11187f1e4e0c0311b250
66773c8d4466b7684c4524a0,Augusta Café,Montréal QC H2S 2B6,45.537744,-73.597375,241,07151bf35f8c11187f1e4e0c0311b250
52bf5bf8498e51ca04c6a4f6,F+F Pizza,"1298 Rue Beaubien E, Montréal QC H2S 1T9",45.53978476090662,-73.59951839333107,338,07151bf35f8c11187f1e4e0c0311b250
4d45f4e61b62b1f70a5e02e3,Dong Que,"1210 Rosemont, Montréal QC H2S 2A5",45.535807378936774,-73.59396077221143,401,07151bf35f8c11187f1e4e0c0311b250
4e050525ae60a90eabb9c368,Café Rustic,"1211, boulevard Rosemont (De la Roche), Montréal QC H2G 1N8",45.53585721161107,-73.59430163435435,389,07151bf35f8c11187f1e4e0c0311b250
50b36342e4b03641dea58b6b,Chez Régine,"1840, rue Beaubien Est (coin Cartier), Montréal QC H2G 1L6",45.543679580146375,-73.59618165575715,491,07151bf35f8c11187f1e4e0c0311b250
6192c70920265e59bdb49841,Bo' Dégât,"1392 Rue Beaubien Est, Montréal QC H2G 1K9",45.540944454443085,-73.59839296305027,306,07151bf35f8c11187f1e4e0c0311b250
53ae1471498e4cf63ec97f64,Le North End,"5800, rue De la Roche (coin Rosemont), Montréal QC H2S 2C7",45.53567790546944,-73.59473197513873,405,07151bf35f8c11187f1e4e0c0311b250
4bb5347cef159c74717374f7,McDonald's,"1275 Boul. Rosemont, Montréal QC H2S 3L9",45.53666416300812,-73.59374628983682,315,07151bf35f8c11187f1e4e0c0311b250
4b8a77abf964a520056e32e3,Autour d'un Pain,"1301 Beaubien (coin Chambord), Montréal QC H2S 2C1",45.54023708789253,-73.59963008400973,358,07151bf35f8c11187f1e4e0c0311b250
5f77be1c7cfebb25948c865b,La Belle Tonki,"1335 Rue Beaubien E, Montréal QC H2G 1K7",45.54052601696362,-73.59939716584466,352,07151bf35f8c11187f1e4e0c0311b250
46676b0da7274e323a59839c,Bombay Spice,"1800 Rosemont Blvd, Montréal QC H2G 1S4",45.54069896533268,-73.59096926915429,365,07151bf35f8c11187f1e4e0c0311b250
5ada893c10b3037ab3a5a456,Grozepa Brasserie Urbaine,"5885 Papineau (De Lorimier), Montréal QC H2G 2W5",45.540605,-73.59083,370,07151bf35f8c11187f1e4e0c0311b250
4b801df9f964a520b55330e3,Subway,"6448 Papineau (coin Beaubien), Montréal QC H2G 2W9",45.54291116073452,-73.59671210521961,417,07151bf35f8c11187f1e4e0c0311b250
64a88ac3a97abb4c71a56ce0,Bistro Japonais Furusato,"1265 Beaubien Est, Montréal QC H2S 1V1",45.539555,-73.600136,383,07151bf35f8c11187f1e4e0c0311b250
5ceacc151acf11002cf4b4e7,Mistral Café,"Boulevard Rosemont, Montréal QC H2S 2A6",45.535914992840745,-73.59425504882392,384,07151bf35f8c11187f1e4e0c0311b250
4c253e62f7ced13a7f45246d,Ben Thanh,"1265 Beaubien est (De Normanville), Montréal QC H2S 1V1",45.53965723837642,-73.60019278186334,389,07151bf35f8c11187f1e4e0c0311b250
4beecc13e24d20a1a15e7314,Pizza Nino,"6588 Monk Blvd, Montréal QC H4E 3J1",45.45304921258736,-73.59374284863432,213,07641a3e5c3bf80c2cd594092c8cce3a
a4bda63200ea41c4f30e5813,Tine Wong,"6723 Monk Blvd, Montréal QC H4E 3J2",45.45163162611603,-73.59364847556091,94,07641a3e5c3bf80c2cd594092c8cce3a
2d85bf0f65d64a55b66244a0,Restaurant Sizzles,"6717 Monk Blvd, Montréal QC H4E 3J2",45.45180086060993,-73.59370233901299,106,07641a3e5c3bf80c2cd594092c8cce3a
4c1772a0368220a107583657,Gourmet Aldo,"2437 Allard (Beaulieu), Montréal QC H4E 2L3",45.45116973023604,-73.59402045871936,119,07641a3e5c3bf80c2cd594092c8cce3a
4bc66308d35d9c74a5b8e23a,Dilallo Burger,"2851, Allard, Montréal QC H4E 2M1",45.450401240512846,-73.59825213307565,459,07641a3e5c3bf80c2cd594092c8cce3a
c1bf4a728ab2487e731be9a2,La Verendrye,"7001 Blvd de la Vérendrye, Montréal QC H4E 3R9",45.448929738260674,-73.58973967108676,343,07641a3e5c3bf80c2cd594092c8cce3a
6685e222c4b56a60fd0c65bc,Taco Et Margarita,"6445 Bd Monk, Montréal QC H4E 3H8",45.454188,-73.59424,344,07641a3e5c3bf80c2cd594092c8cce3a
1c2fed4b1b8240f03b5eb772,Restaurant Pizzeria,"7001 Blvd de la Vérendrye, Montréal QC H4E 3R9",45.44858929049601,-73.58972865438867,374,07641a3e5c3bf80c2cd594092c8cce3a
67397ef0fa4d882fc5576439,Kilimandjaro,"Ville Emard (Bd Monk), Montréal QC H4E 3H8",45.454937,-73.59493,442,07641a3e5c3bf80c2cd594092c8cce3a
067219da0df74dc34f09305d,Restaurant Sofra,"2830 Allard Rue, Montréal QC H4E 2M2",45.450178256229975,-73.59805139265838,450,07641a3e5c3bf80c2cd594092c8cce3a
5dbe167e6d311c0008c8ef9c,Nagomi,"103 Rue Jacques-le Ber, Verdun QC H3E 0B4",45.472834835346475,-73.53945857675939,37,07c7d44ac97d0906af2e27a24fd56b13
54b1a33e498efa9d6f15c154,Chez Carl Express,"103, rue Jacques-Le-Ber, Verdun QC H3E 1Y1",45.47294640073436,-73.53955884649314,43,07c7d44ac97d0906af2e27a24fd56b13
514d2403e4b06eb4aa8b8b7e,Les Enfants Terribles,"209 Rue de la Rotonde (Pointe Nord), Montréal QC H3E 1Y1",45.47297705353361,-73.53821432848532,130,07c7d44ac97d0906af2e27a24fd56b13
4ddbf052b0fb2604df751ad9,Cafeteria 3ieme Aile B,"Campus Bell, Verdun QC",45.4713794359739,-73.54405860364426,358,07c7d44ac97d0906af2e27a24fd56b13
50c22a96e4b08a121da604f2,Sushi Palace,"8 Place Du Commerce, Verdun QC H3E 1N3",45.46910412935753,-73.54142271798389,408,07c7d44ac97d0906af2e27a24fd56b13
4bcb416e937ca593ce25a992,Subway,"8 Place Du Commerce, Suite 101- Ground Floor, Ile Des Soeurs QC H3E 1N3",45.469157965226444,-73.54156956659774,406,07c7d44ac97d0906af2e27a24fd56b13
6817e9d514afe6662a11be8c,Cafe Quatorze,Montréal QC H3E 2A5,45.46889,-73.539079,416,07c7d44ac97d0906af2e27a24fd56b13
4bdf291de75c0f47591aca03,Piazzetta,"4 place du commerce, Verdun QC H3e1j4",45.46891929256402,-73.54214275408619,447,07c7d44ac97d0906af2e27a24fd56b13
5649ff91498eec5ccae34fcd,Première Moisson,"333, rue Prince-Arthur Ouest (coin Parc), Montréal QC H2X 3P8",45.51061231559248,-73.57570579237702,266,07f0abcb10ec09105ffaa1d6cbb3ab14
4b6e650cf964a52097bb2ce3,Bocadillo,"3677 boul. Saint-Laurent (entre Prince-Arthur & Des Pins), Montréal QC H2X 2V5",45.51457426332654,-73.5739931953945,297,07f0abcb10ec09105ffaa1d6cbb3ab14
4be19acf58102d7faffa4156,Sushi Ocean,"3751 rue Saint-Urbain (coin Des Pins), Montréal QC H2W 1T4",45.51401092627935,-73.57620230318938,140,07f0abcb10ec09105ffaa1d6cbb3ab14
55d4fc18498ef2b358bc59fa,Singh's,"3712 Saint Laurent (Guilbault), Montréal QC H2X 2V4",45.51461220551383,-73.5745746604391,267,07f0abcb10ec09105ffaa1d6cbb3ab14
57cdba55498ef7ba864578f4,Café Nocturne,"19, rue Prince-Arthur Ouest (entre St-Laurent & Clark), Montréal QC H2X 1S4",45.51373728510903,-73.57289972382969,328,07f0abcb10ec09105ffaa1d6cbb3ab14
4ad4c06df964a5208ffa20e3,Restaurant Jano,"3883 Boulevard St-Laurent, Montréal QC H2W 1X9",45.516066321567855,-73.57736063504231,358,07f0abcb10ec09105ffaa1d6cbb3ab14
598254cf270ee75c96525b88,La Maison Dumplings,"3591 rue Clark (Prince-Arthur), Montréal QC H2X 2R9",45.51334674882983,-73.57254815926999,345,07f0abcb10ec09105ffaa1d6cbb3ab14
4ad4c06df964a52073fa20e3,Schwartz's Montreal Hebrew Delicatessen (Schwartz's Charcuterie Hébraïque de Montréal),"3895 boul. Saint-Laurent (entre St-Cuthbert & Napoléon), Montréal QC H2W 1X9",45.5162389615093,-73.57773331445125,381,07f0abcb10ec09105ffaa1d6cbb3ab14
55a90f89498e8b05f635a821,Second Cup Café,"3801 Boul Saint-Laurent (coin Roy), Montréal QC H2W 1X9",45.51566434280201,-73.57591626866399,321,07f0abcb10ec09105ffaa1d6cbb3ab14
4ad4c06cf964a52035fa20e3,Maestro SVP,"3615 boul. Saint-Laurent (entre Prince-Arthur & Des Pins), Montréal QC H2X 2V5",45.51412682297394,-73.5730235206668,335,07f0abcb10ec09105ffaa1d6cbb3ab14
4ae4b9f2f964a5207f9d21e3,Hielo Resto Bar,"3575 Ave. du Parc (coin Prince-Arthur), Montréal QC H2X 3P9",45.51041284055431,-73.57533141444476,298,07f0abcb10ec09105ffaa1d6cbb3ab14
4d705df2c7f8224bed58affb,Icehouse,"51 rue Roy Est (coin St-Dominique), Montréal QC H2W 2S3",45.5158399473763,-73.57561803417592,346,07f0abcb10ec09105ffaa1d6cbb3ab14
4ad4c06df964a5203dfa20e3,Café Santropol,"3990 rue Saint-Urbain (coin Duluth), Montréal QC H2W 1T7",45.515609946713695,-73.58061088833497,419,07f0abcb10ec09105ffaa1d6cbb3ab14
4ad4c06af964a52012f920e3,Main Deli Steak House,"3864 boul. Saint-Laurent (entre St-Cuthbert & Bagg), Montréal QC H2W 1Y2",45.51593,-73.577472,344,07f0abcb10ec09105ffaa1d6cbb3ab14
5a428d0395a7224a1f1e40f5,Arepera,"73 Rue Prince Arthur E (Coloniale), Montréal QC H2X 1B4",45.514719215525815,-73.5721076884708,428,07f0abcb10ec09105ffaa1d6cbb3ab14
4ad4c06df964a520aafa20e3,Au 14 Prince Arthur Ouest,"14, rue Prince-Arthur Ouest, Montréal QC H2X 1S3",45.51345833057758,-73.57264860564841,339,07f0abcb10ec09105ffaa1d6cbb3ab14
52712d5711d2c3bb57565b25,Bombay Mahal Express,"3681 St-Laurent Blvd, Montréal QC H2X 2V5",45.51468179148216,-73.57394718022306,308,07f0abcb10ec09105ffaa1d6cbb3ab14
534c8cea11d29df0172f87be,Brioche Dorée,"3611, boul. Saint-Laurent (coin Prince-Arthur), Montréal QC H2X 2V5",45.514137670254385,-73.57276722404025,353,07f0abcb10ec09105ffaa1d6cbb3ab14
5825fb5d434f98127d3539fb,A&W Restaurant,"3780, boulevard St-Laurent, Montréal QC H2W 1X6",45.515210129600916,-73.57590169879992,273,07f0abcb10ec09105ffaa1d6cbb3ab14
4ad4c06df964a5208cfa20e3,Coco Rico,"3907 boul. Saint-Laurent (coin Napoléon), Montréal QC H2W 1X9",45.51637741703127,-73.57780918478966,397,07f0abcb10ec09105ffaa1d6cbb3ab14
66c365092515624f5fa746bf,Fleurimont Café & Vin,"907 Boul Rosemont, Montréal QC H2S 1Z8",45.534021,-73.595952,33,0804af1a0607c5aff81fae6d4bab8fc7
4c17aef3c2dfc928ee65a869,Chez Ahn,"907 rosemont, Montréal QC H2S 1Z8",45.533783059829716,-73.59568806149635,37,0804af1a0607c5aff81fae6d4bab8fc7
4ba40cfff964a520f37b38e3,Café Carpe Diem,"804, boul. Rosemont, Montréal QC H2S 1Z6",45.533259055729246,-73.59630100352801,110,0804af1a0607c5aff81fae6d4bab8fc7
4b23bcf4f964a520cf5824e3,Au Tarot,"843 boul. Rosemont (coin St-Hubert), Montréal QC H2S 1Z7",45.533771127515344,-73.59626920674665,67,0804af1a0607c5aff81fae6d4bab8fc7
58235f6056f12374260c7dd2,Le comptoir Mael,"824 Rosemont (Saint-Hubert), Montréal QC H2S 1Z6",45.533549948270306,-73.59597124381447,69,0804af1a0607c5aff81fae6d4bab8fc7
4bfd59064cf820a1de53ecf4,Ô Deux Soeurs,"780 Rosemont Blvd. (coin St-Hubert), Montréal QC HS2 0B7",45.532635403503775,-73.59623224852781,171,0804af1a0607c5aff81fae6d4bab8fc7
4b7df130f964a5205adb2fe3,Casa Do Alentejo,"5938 St Hubert, Montréal QC H2S 2L7",45.53378712301724,-73.59825663649963,214,0804af1a0607c5aff81fae6d4bab8fc7
4d45f4e61b62b1f70a5e02e3,Dong Que,"1210 Rosemont, Montréal QC H2S 2A5",45.535807378936774,-73.59396077221143,225,0804af1a0607c5aff81fae6d4bab8fc7
4e050525ae60a90eabb9c368,Café Rustic,"1211, boulevard Rosemont (De la Roche), Montréal QC H2G 1N8",45.53585721161107,-73.59430163435435,217,0804af1a0607c5aff81fae6d4bab8fc7
53ae1471498e4cf63ec97f64,Le North End,"5800, rue De la Roche (coin Rosemont), Montréal QC H2S 2C7",45.53567790546944,-73.59473197513873,186,0804af1a0607c5aff81fae6d4bab8fc7
4c71c9a9ad69b60c6d0c82b9,La Bêtise,"6015 Saint-Hubert (Rue Bellechasse), Montréal QC H2S 2L8",45.53467181749049,-73.5994485602555,311,0804af1a0607c5aff81fae6d4bab8fc7
516df554e4b0358cfd8706f7,Sushi Rosemont,"770 Boulevard Rosemont, Montréal QC H2S 0B7",45.53257364497447,-73.59647253802423,184,0804af1a0607c5aff81fae6d4bab8fc7
55d2067f498ef7228abf9f76,Montréal Plaza,"6230 Saint-Hubert St, Montréal QC H2S 2M2",45.53487506016078,-73.60061828948615,405,0804af1a0607c5aff81fae6d4bab8fc7
4bb9e3ed53649c74a55848fb,Restaurant Lafirenzé,"38 rue Beaubien Est (coin Saint-Laurent), Montréal QC H2S 1P8",45.53423942546958,-73.59836829922777,221,0804af1a0607c5aff81fae6d4bab8fc7
5ceacc151acf11002cf4b4e7,Mistral Café,"Boulevard Rosemont, Montréal QC H2S 2A6",45.535914992840745,-73.59425504882392,225,0804af1a0607c5aff81fae6d4bab8fc7
572b90ee498ebfc0280124a0,Pita Gourmet,"531 Rosemont Blvd, Montréal QC H2S 1Z4",45.532382396816956,-73.59748396646887,243,0804af1a0607c5aff81fae6d4bab8fc7
609ff1306f75d11754fad2e0,Restaurant Pichai,"5985 Rue St-Hubert, Montréal QC H2S 2L8",45.53434304436921,-73.59885629487738,259,0804af1a0607c5aff81fae6d4bab8fc7
4bb7644c2f70c9b657968630,Pho Rosemont,"437 Rosemont, Montreal, QC (Saint-Denis), Montréal QC",45.5316870375987,-73.59813974490685,336,0804af1a0607c5aff81fae6d4bab8fc7
4c3a86e25810a5937057b93c,Pizza Bonizza,"525 Rosemont, Montréal QC H2S 1Z4",45.53209349302767,-73.5977168541237,280,0804af1a0607c5aff81fae6d4bab8fc7
558898d1498eb8fa602065f3,Les Oubliettes,"6201 Saint-Vallier (coin Bellechasse), Montréal QC H2S 2P6",45.533609807429144,-73.60135237129298,456,0804af1a0607c5aff81fae6d4bab8fc7
5536df62498e2325f5f9be5c,Le Red Tiger,"1201 Blvd de Maisonneuve E, Montréal QC H2L 2A1",45.51908771604731,-73.5579240936168,5,087ebaee08c22fcceddf4c659711fc06
57d722a6498ee639b86bd6a2,Crêperie en couleur,"1212 Boul de Maisonneuve E, Montréal QC H2L 1Z9",45.51910747186137,-73.55742435491469,36,087ebaee08c22fcceddf4c659711fc06
4ebd92cd30f88739f5044215,Pourquoi Pas Espresso Bar,"1447 rue Amherst (entre De Maisonneuve & Ste-Catherine), Montréal QC H2L 3L2",45.517830686508,-73.55790851738293,144,087ebaee08c22fcceddf4c659711fc06
576564bd498eee3892c32bad,Le Passé Composé,"1310 Maisonneuve Est (Visitation), Montréal QC H2L 2A5",45.520032063579734,-73.55669968153053,136,087ebaee08c22fcceddf4c659711fc06
5a18ce8c4186863e2cff7449,Le Blossom,"1101 Boulevard de Maisonneuve Est, Montréal QC H2L 1Z6",45.51840264966105,-73.55856465669972,96,087ebaee08c22fcceddf4c659711fc06
4b5504fef964a52014d827e3,La Piazzetta Sainte-Catherine,"1101 Rue Sainte-Catherine Est (coin Amherst), Montréal QC H2L 2G6",45.5175379,-73.5571006,187,087ebaee08c22fcceddf4c659711fc06
4d7cde466152b60c595a9926,L'Œufrier,"1441, rue Amherst (btwn rue Sainte-Catherine E & rue de Maisonneuve E), Montréal QC H2L 3L2",45.51778355090005,-73.55779260221387,150,087ebaee08c22fcceddf4c659711fc06
4b3ab5dff964a520236d25e3,La Couscoussière d'Ali Baba,"1460 Rue Amherst, Montréal QC H2L 3L3",45.517729143411636,-73.55815578044576,157,087ebaee08c22fcceddf4c659711fc06
4d6d6c0a68406ea8a8f67583,Java U,"1259 rue Ste-Catherine E (rue Beaudry), Montréal QC H2L 2H2",45.518967450993664,-73.55591818866982,154,087ebaee08c22fcceddf4c659711fc06
4b83e773f964a520f11531e3,Chez Cora,"1017, rue Sainte-Catherine Est (coin Saint-Timothée), Montréal QC H2L 2G4",45.51725690099344,-73.55736857084652,212,087ebaee08c22fcceddf4c659711fc06
4b775df2f964a52093952ee3,Mozza Pâtes & Passions,"1326, rue Ste-Catherine est (Entre les rues Panet et de la Visitation), Montréal QC H2L 2H5",45.51955478365764,-73.55496789469794,232,087ebaee08c22fcceddf4c659711fc06
57164569498e9bb9e88d52b4,Rôtisserie St-Hubert,"1019 Rue Sainte-Catherine E (coin  Amherst), Montréal QC H2L 2G4",45.51745488496865,-73.55727556510828,192,087ebaee08c22fcceddf4c659711fc06
57853d34498e2a327d4f3316,La Graine Brûlée,"921 Sainte-Catherine Est (entre St-André & St-Timothée), Montréal QC H2L 2E5",45.51676881843223,-73.55788315508389,262,087ebaee08c22fcceddf4c659711fc06
552005ed498e186fc011709d,Steak House Village,"1302 Sainte-Catherine Est, Montréal QC H2L 2H5",45.519323760329975,-73.55515436558599,214,087ebaee08c22fcceddf4c659711fc06
4b539895f964a520f4a327e3,Restaurant Pho Viet,"1663 rue Atateken, Montréal QC H2L 3L4",45.5189430207897,-73.55993818736454,160,087ebaee08c22fcceddf4c659711fc06
4b7caffdf964a52038a12fe3,La Mie Matinale,"1654 rue Sainte-Catherine Est (Plessis), Montréal QC H2L 2H7",45.52029974883856,-73.55465233190046,283,087ebaee08c22fcceddf4c659711fc06
4b380747f964a520834a25e3,Le Saloon,"1333, rue Sainte-Catherine est (coin Panet), Montréal QC H2L 2H4",45.51993234511356,-73.55489973824427,249,087ebaee08c22fcceddf4c659711fc06
4bb96a467421a593c6cdc240,O'Thym,"1257 Rue Atateken (btwn Amherst & Wolfe St.), Montréal QC H2L 1Z8",45.517109,-73.556018,267,087ebaee08c22fcceddf4c659711fc06
4d8ba6960c4e41bdcdfb667f,Pizza Pizza,"1001, rue Sainte-Catherine Est (coin rue Saint-Timothée), Montréal QC H2L 2G4",45.517226950799284,-73.5577039009424,212,087ebaee08c22fcceddf4c659711fc06
4b840e65f964a520c91d31e3,Fantasie,"1355, rue Sainte-Catherine Est, Montréal QC H2L 2H7",45.520182282492264,-73.5548423966019,264,087ebaee08c22fcceddf4c659711fc06
58acda7845005e1c95d3ce08,Petros Taverne Grecque,"4785 Sherbrooke St W, Westmount QC H3Z 1G5",45.47989126743033,-73.6029395944024,256,0960bf3c2e9be92bd03fd80c49bf720f
4f3ee869e4b0be77fbd85582,Restaurant Park,"378 Avenue Victoria, Westmount QC H3Z 2N4",45.47864232019702,-73.6027551414086,349,0960bf3c2e9be92bd03fd80c49bf720f
4b524031f964a520bc7227e3,Le Fournil,"364 Victoria ave, Westmount QC H3Z 2N4",45.478369788736124,-73.60235747619666,361,0960bf3c2e9be92bd03fd80c49bf720f
6276ed5fe9cd176178d6d813,Ristorante Donato,Westmount QC H3Z 1G8,45.47932768063465,-73.60272757334936,287,0960bf3c2e9be92bd03fd80c49bf720f
4b520664f964a520256227e3,Eatz Encore,"4824 Sherbrooke St., Westmount QC H3Z 1G8",45.47932768063465,-73.60272757334936,287,0960bf3c2e9be92bd03fd80c49bf720f
5480fbc9498eeda949062b61,Lavanderia,"374 Victoria, Montréal QC H3Z 2N4",45.47847532163845,-73.6027481337346,365,0960bf3c2e9be92bd03fd80c49bf720f
611bf0d0556d670a2b2678eb,Café Myriade,"347 Victoria Ave (Somerville), Westmount QC H3Z 2N1",45.47833198223736,-73.60143661832389,339,0960bf3c2e9be92bd03fd80c49bf720f
670ad5b7b0e9431d8d9ff95b,Cafe Olympico,Westmount QC H3Z 2N4,45.478285,-73.601984,358,0960bf3c2e9be92bd03fd80c49bf720f
59cd8f8cdd70c57e96a8f002,Pizzeria No. 900,"364 Avenue Victoria, Westmount QC H3Z 2N4",45.47831402920481,-73.60230725412579,364,0960bf3c2e9be92bd03fd80c49bf720f
5984f6ad75cb8c79a98cea83,Café Bazin,"380 Victoria Ave, Montréal QC H3Z 2N4",45.478473326078856,-73.60284487140315,369,0960bf3c2e9be92bd03fd80c49bf720f
53873ed5498e858f9b028fd0,Oeufrier,"4785 Sherbrooke, Westmount QC H3Z 1G5",45.48338836051306,-73.60411879763109,376,0960bf3c2e9be92bd03fd80c49bf720f
61131791a7d4ad2de0f1016b,Bistro la Franquette,"374 Victoria Ave, Westmount QC H3Z 2N4",45.47830205683688,-73.60288767793543,387,0960bf3c2e9be92bd03fd80c49bf720f
4dc488b5e4cd169dc63608a4,Toucheh,"351 Prince Albert Ave, Montréal QC H3Z 2N9",45.477738478467884,-73.60267566510294,435,0960bf3c2e9be92bd03fd80c49bf720f
5b2e914c89e490002c21c1cb,Aux Vivres,"4896 SHERBROOKE St W, Montréal QC H3Z 1H1",45.4782243410313,-73.60390156410523,439,0960bf3c2e9be92bd03fd80c49bf720f
4b27c7bff964a520d28924e3,Hotdogeria,"2107 Rachel E, Montréal QC H2H 1R1",45.532997329117286,-73.56736214028237,105,09cef143d6e60e226015fbdf71c2d345
4c27e8553492a59309a7b628,Les Deux Oliviers,"1870, rue Rachel Est (Cartier), Montréal QC H2H 1P6",45.53126821988042,-73.56856687674748,112,09cef143d6e60e226015fbdf71c2d345
4c9d02fc0df79c741cd8141a,La Baraque,"Rachel (de Lorimier), Montréal QC H2K 3X7",45.53188714889547,-73.56606683823762,128,09cef143d6e60e226015fbdf71c2d345
4ba18d0bf964a520f8bf37e3,Le Caractère Chinois,"1870 rue Gauthier (coin Cartier), Montréal QC H2K 1A3",45.53028735384148,-73.56650042332143,219,09cef143d6e60e226015fbdf71c2d345
4ad4c06cf964a52031fa20e3,Maamm Bolduc,"4351 ave. de Lorimier, Montréal QC H2H 2B3",45.53424305181713,-73.570160933419,307,09cef143d6e60e226015fbdf71c2d345
4b12dc37f964a5209c8f23e3,La Cabane à pain,"2020 Gauthier (Bordeaux), Montréal QC H2K 1A7",45.531504376072206,-73.56532778582492,195,09cef143d6e60e226015fbdf71c2d345
532dad6a498ef601208851dc,Planète-Pain,"2020 Gauthier (Bordeaux), Montréal QC H2K 1A7",45.531504376072206,-73.56532778582492,195,09cef143d6e60e226015fbdf71c2d345
517eb73e498e4dd1aa221568,Setup Café,"4265 Av Papineau (Rachel), Montréal QC H2H 1T3",45.5314002305384,-73.57046091987104,227,09cef143d6e60e226015fbdf71c2d345
4b1c3a52f964a520a70424e3,Les Co'Pains d'Abord,"1965 ave. du Mont-Royal Est (coin Chabot), Montréal QC H2H 1J5",45.534322583692386,-73.57326202773564,499,09cef143d6e60e226015fbdf71c2d345
4b003915f964a520a73b22e3,Restaurant les Belles-Soeurs,"2251 Marie-Anne Rue E (Parthenais), Montréal QC H2H 1N4",45.53609996710579,-73.56847880283092,451,09cef143d6e60e226015fbdf71c2d345
4dc1654bfa764d03e9fd2643,Café Bistro le Cartier,"1851 Sherbrooke Rue E (Cartier), Montréal QC H2K 4L5",45.52880423570967,-73.56398199433413,464,09cef143d6e60e226015fbdf71c2d345
5efce8daf79cda00087d79c8,Cabin Mtl,"2000 Avenue Du Mont Royal Est, Montréal QC H2H",45.53459274609037,-73.57274369680138,482,09cef143d6e60e226015fbdf71c2d345
4c0c0612a1b32d7f62eb9bf0,Subway,Montréal QC,45.548187560190115,-73.61094228856288,119,09fe2c61fe35c26c42e876ca291f8984
53fa2291498ebc01e17d43f1,Pizzeria No. 900 Mobile,Montréal QC,45.54813376753226,-73.61079508745628,125,09fe2c61fe35c26c42e876ca291f8984
56cb7588cd10ae6f43696f90,le roi de taco,,45.548187560190115,-73.61094228856288,119,09fe2c61fe35c26c42e876ca291f8984
4c86a76ed8086dcb05599c52,Nobu Sushi,"1813 Jean-Talon Est (Papineau), Montréal QC H2E 1T4",45.5481539500694,-73.60706298920277,405,09fe2c61fe35c26c42e876ca291f8984
4e6ea4cfd1647b1137a0cd55,Thaï Sep,"1900 Jean-Talon Est, Montréal QC H2E 1T6",45.548626281581505,-73.60620587672207,481,09fe2c61fe35c26c42e876ca291f8984
4c5a4dcd2091a5933e375fd0,La Belle Bleue,"1865 Jean-Talon (Jean-Talon & Papineau), Montréal QC H2E 1T4",45.54850070881668,-73.60678349359715,434,09fe2c61fe35c26c42e876ca291f8984
4c46333b342c1b8d1aefb589,Kazan Sushi,"1565 Jean-Talon Est (ouest de Papineau), Montréal QC H2E 1S9",45.546994092773616,-73.60818838356492,319,09fe2c61fe35c26c42e876ca291f8984
4c57250830d82d7f802ad962,Patisserie San Marco,"1581 Jean-Talon Rue E (Marquette), Montréal QC H2E 1S9",45.54722726333969,-73.60790517700617,337,09fe2c61fe35c26c42e876ca291f8984
6432fec239c30e7cb544cc8e,Casse-Croûte MangeDansMonHood,"1380 Rue Jean-Talon Est, Montréal QC H2E 1S2",45.54573464639113,-73.60863180261663,345,09fe2c61fe35c26c42e876ca291f8984
4c9fcf88542b224be4d300a0,Caffè Terrasse Montebello,"1334 rue Jean-Talon Est, Montréal QC H2E 1S1",45.54497934501275,-73.6094310677606,361,09fe2c61fe35c26c42e876ca291f8984
62f7f159d4a62a71bd7a9f3e,Tabac,"1370 rue Villeray, Montréal QC H2E 1G6",45.54875088518317,-73.61668125249759,371,09fe2c61fe35c26c42e876ca291f8984
4b68a10df964a520c4832be3,Colbert Ristorante Italiano,"1235 Jean-Talon Est (Normanville), Montréal QC H2R 1W2",45.54380949096809,-73.61104072151714,428,09fe2c61fe35c26c42e876ca291f8984
4cba425cc7228cfae01716ce,Restorante Porto Pollo,,45.548279523929736,-73.60648537748449,452,09fe2c61fe35c26c42e876ca291f8984
54692fcf498e87b1910bb89c,Dilallo Burger Et Bar,"1840, Jean Talon E (Papineau), Montréal QC H2E 1T5",45.548279523929736,-73.60648537748449,452,09fe2c61fe35c26c42e876ca291f8984
4c5a4e39d3aee21e758d6a55,Pâtes Colocciao,"1880 Jean-Talon, Montréal QC H2E 1T6",45.54873188151586,-73.60659716081035,455,09fe2c61fe35c26c42e876ca291f8984
4b391e12f964a5208c5625e3,L'Usine de Spaghetti,"273 Rue Saint Paul Est (at rue du Marché-Bonsecours), Montréal QC H2Y 1H1",45.5080643219656,-73.55233077850248,63,0a3aa715457ea0c777ddd396228eafd1
4b4d5803f964a52012d126e3,Jardin Nelson,"407 Pl Jacques-Cartier (coin St-Paul), Vieux-Montréal QC H2Y 3B1",45.508014641605826,-73.55246767899015,66,0a3aa715457ea0c777ddd396228eafd1
57754d9c498e258998768089,Maggie Oakes,"426 Place Jacques-Cartier, Montréal QC H2Y 3B3",45.50775067152932,-73.55295792771567,88,0a3aa715457ea0c777ddd396228eafd1
57956471cd101a68f1b0eb74,Café Olimpico,"419 Rue Saint-Vincent (Rue Saint-Amable), Montréal QC H2Y 3A6",45.507152622607045,-73.55315324843758,114,0a3aa715457ea0c777ddd396228eafd1
4bf71147508c0f476c403d31,BEVO Bar + Pizzeria,"410, rue St-Vincent (rue Saint-Paul et rue Saint-Amable), Montréal QC H2Y 3A5",45.507072655571555,-73.55307998789603,113,0a3aa715457ea0c777ddd396228eafd1
4b089ccaf964a5206e0f23e3,Le Club Chasse et Pêche,"423 Saint-Claude, Montréal QC H2Y 3B6",45.50876324175259,-73.55257059148657,140,0a3aa715457ea0c777ddd396228eafd1
53758a5e498e1c266781d83b,Resto-bar St. Amable,"410 Jacques-Cartier Pl, Montréal QC H2Y 3B2",45.50749774513443,-73.55279494663806,75,0a3aa715457ea0c777ddd396228eafd1
4bb3c8fd35f0c9b678e2bc83,Scena,"149 De la Commune Est (Quai Jacques-Cartier), Montréal QC",45.5069697399496,-73.55091221653478,101,0a3aa715457ea0c777ddd396228eafd1
5b0892ee4a296a002c8f062b,El Pequeño Bar,"401 Rue St. Vincent (Rue St. Amable), Montréal QC H2Y 1E8",45.50720509602225,-73.55322158243135,116,0a3aa715457ea0c777ddd396228eafd1
579d3f5a498ef4fbefaf567d,Chez Eric,"438 Place Jacques Cartier, Montréal QC H2Y 3B3",45.50766122706354,-73.55313911892026,101,0a3aa715457ea0c777ddd396228eafd1
4e6237681f6ef7d07a984e79,Creperie St-Paul,"161 Saint-Paul Rue E, Montréal QC H2Y 1G8",45.507079512469076,-73.55277808283597,94,0a3aa715457ea0c777ddd396228eafd1
57a68ded38faa6f96d1eff14,Délices Érable & Cie,"84 rue Saint-Paul Est (coin Saint-Gabriel), Montréal QC H2Y 1G6",45.506234092268635,-73.55299888427429,177,0a3aa715457ea0c777ddd396228eafd1
4e36f827d16464ddb7773c7f,Taverne Gaspar,"89, rue de la Commune est (St-Gabriel), Montréal QC H2Y 1J1",45.50628245002572,-73.55296973904875,171,0a3aa715457ea0c777ddd396228eafd1
51a7ea5d498ee9ab1e287e61,Dic Ann's Foodtruck,Montréal QC,45.50759062885996,-73.55100595326975,64,0a3aa715457ea0c777ddd396228eafd1
5cc78a89c0af57002c4a8af1,Jacopo,"436 Jacques-Cartier Pl, Montréal QC H2Y 3B3",45.50777086566962,-73.55333630201099,118,0a3aa715457ea0c777ddd396228eafd1
4bbd2cf4f57ba593d0d5adb9,Vieux-Port Steakhouse,"39 St-Paul Est (St-Gabriel), Montréal QC H2Y 1G2",45.50619463374345,-73.55340933634899,199,0a3aa715457ea0c777ddd396228eafd1
4b634b33f964a5204c702ae3,L'Auberge Saint-Gabriel,"426 rue St-Gabriel, Montréal QC H2Y 2Z9",45.506529294693465,-73.55416439088998,217,0a3aa715457ea0c777ddd396228eafd1
4b6b5538f964a5207e012ce3,The Keg Steakhouse + Bar,"25 Rue Saint-Paul E, Montréal QC H2Y 1G2",45.50595940240751,-73.55361777254723,230,0a3aa715457ea0c777ddd396228eafd1
57eade3b498e0c478af53d6b,La Baraque Du Vieux Saint-Vincent,"401 Rue Saint-Vincent, Montréal QC H2Y 3A4",45.507151253456094,-73.55307459301095,109,0a3aa715457ea0c777ddd396228eafd1
4e09d7f1315117c55a2189c5,Restaurant le Fripon,"436 Place Jacques Cartier, Montréal QC H2Y 3B3",45.5077959737575,-73.55308418822858,99,0a3aa715457ea0c777ddd396228eafd1
55a4301a498edc8d7066afe0,Le Mousso,"1023, rue Ontario Est (entre Amherst & St-Timothée), Montréal QC H2L 1P8",45.52012747645225,-73.56317309635664,83,0a7c87358ddb6f559572c8f955f78b6b
4b918be8f964a52087c433e3,Chez Philippe,"1877 Amherst (Ontario), Montréal QC H2L 3L7",45.51997576755045,-73.5622478294913,150,0a7c87358ddb6f559572c8f955f78b6b
4e303665b0fbdc2b65090805,Sushi 4 Saisons,"1104 Ontario Est, Montréal QC H2L 1R1",45.5202508398238,-73.56269257136942,105,0a7c87358ddb6f559572c8f955f78b6b
54103fbf498e59b0264f5007,Café Sfouf,"1250 rue Ontario (rue Beaudry), Montréal QC H2L 1R6",45.521573431662354,-73.56191102347287,185,0a7c87358ddb6f559572c8f955f78b6b
4c07a1becf8c76b03f403c65,Bistro Tôt ou Tard,"1030, rue Cherrier (at Parc-Lafontaine Ave.), Montréal QC H2L 1H9",45.52160921083886,-73.56654631659126,230,0a7c87358ddb6f559572c8f955f78b6b
5659932a498e89a644dc2f99,Arte & Farina,"1550, rue Ste-Catherine Est (Alexandre-DeSève), Montréal QC H2L 1R6",45.52163119155291,-73.5618644120823,192,0a7c87358ddb6f559572c8f955f78b6b
4b4758c4f964a5206e2f26e3,Uchi Sushi,"1799 Atateken Rue (rue Robin), Montréal QC H2L 3L7",45.51954113731696,-73.56126514287654,241,0a7c87358ddb6f559572c8f955f78b6b
4b7cc4cdf964a520c5a42fe3,Café Pamplemousse,"1251, rue Ontario Est (Beaudry), Montréal QC H2L 1R7",45.521794670328774,-73.56220872927265,182,0a7c87358ddb6f559572c8f955f78b6b
57350c07498e9001109eec83,Macbar et Fromage,"1345 Ontario Est, Montréal QC H2L 1R8",45.5228304347716,-73.56156337388809,302,0a7c87358ddb6f559572c8f955f78b6b
4f3453ffe4b0aa1d1a754aaa,Poutineville,"1365 rue Ontario Est, Montréal QC H2L 1S2",45.52312710047205,-73.56122237970736,344,0a7c87358ddb6f559572c8f955f78b6b
4c3f4c2bd691c9b64a86890a,Yuki Sushi Bar,"1350 Ontario Est (Panet), Montréal QC H2L 1S1",45.52295575328868,-73.56098598302115,341,0a7c87358ddb6f559572c8f955f78b6b
